[
  {
    "Abbreviation": "sfo",
    "AreaID": 1,
    "Country": "US",
    "Description": "SF bay area",
    "Hostname": "sfbay",
    "Latitude": 37.5,
    "Longitude": -122.25,
    "Region": "CA",
    "ShortDescription": "SF bay area",
    "SubAreas": [
      {
        "Abbreviation": "sfc",
        "Description": "city of san francisco",
        "ShortDescription": "san francisco",
        "SubAreaID": 1
      },
      {
        "Abbreviation": "sby",
        "Description": "south bay area",
        "ShortDescription": "south bay",
        "SubAreaID": 2
      },
      {
        "Abbreviation": "eby",
        "Description": "east bay area",
        "ShortDescription": "east bay",
        "SubAreaID": 3
      },
      {
        "Abbreviation": "pen",
        "Description": "peninsula",
        "ShortDescription": "peninsula",
        "SubAreaID": 4
      },
      {
        "Abbreviation": "nby",
        "Description": "north bay / marin",
        "ShortDescription": "north bay",
        "SubAreaID": 5
      },
      {
        "Abbreviation": "scz",
        "Description": "santa cruz co",
        "ShortDescription": "santa cruz",
        "SubAreaID": 6
      }
    ],
    "Timezone": "America/Los_Angeles"
  },
  {
    "Abbreviation": "sea",
    "AreaID": 2,
    "Country": "US",
    "Description": "seattle-tacoma",
    "Hostname": "seattle",
    "Latitude": 47.6064,
    "Longitude": -122.331001,
    "Region": "WA",
    "ShortDescription": "seattle",
    "SubAreas": [
      {
        "Abbreviation": "see",
        "Description": "seattle",
        "ShortDescription": "seattle",
        "SubAreaID": 1
      },
      {
        "Abbreviation": "est",
        "Description": "eastside",
        "ShortDescription": "eastside",
        "SubAreaID": 2
      },
      {
        "Abbreviation": "sno",
        "Description": "snohomish county",
        "ShortDescription": "snohomish co",
        "SubAreaID": 3
      },
      {
        "Abbreviation": "kit",
        "Description": "kitsap / west puget",
        "ShortDescription": "kitsap co",
        "SubAreaID": 4
      },
      {
        "Abbreviation": "tac",
        "Description": "tacoma / pierce",
        "ShortDescription": "tacoma",
        "SubAreaID": 5
      },
      {
        "Abbreviation": "oly",
        "Description": "olympia / thurston",
        "ShortDescription": "olympia",
        "SubAreaID": 6
      },
      {
        "Abbreviation": "skc",
        "Description": "south king co",
        "ShortDescription": "south king",
        "SubAreaID": 7
      }
    ],
    "Timezone": "America/Los_Angeles"
  },
  {
    "Abbreviation": "nyc",
    "AreaID": 3,
    "Country": "US",
    "Description": "new york city",
    "Hostname": "newyork",
    "Latitude": 40.714199,
    "Longitude": -74.006401,
    "Region": "NY",
    "ShortDescription": "new york",
    "SubAreas": [
      {
        "Abbreviation": "mnh",
        "Description": "manhattan",
        "ShortDescription": "manhattan",
        "SubAreaID": 1
      },
      {
        "Abbreviation": "brk",
        "Description": "brooklyn",
        "ShortDescription": "brooklyn",
        "SubAreaID": 2
      },
      {
        "Abbreviation": "que",
        "Description": "queens",
        "ShortDescription": "queens",
        "SubAreaID": 3
      },
      {
        "Abbreviation": "brx",
        "Description": "bronx",
        "ShortDescription": "bronx",
        "SubAreaID": 4
      },
      {
        "Abbreviation": "stn",
        "Description": "staten island",
        "ShortDescription": "staten island",
        "SubAreaID": 5
      },
      {
        "Abbreviation": "jsy",
        "Description": "new jersey",
        "ShortDescription": "new jersey",
        "SubAreaID": 6
      },
      {
        "Abbreviation": "lgi",
        "Description": "long island",
        "ShortDescription": "long island",
        "SubAreaID": 7
      },
      {
        "Abbreviation": "wch",
        "Description": "westchester",
        "ShortDescription": "westchester",
        "SubAreaID": 8
      },
      {
        "Abbreviation": "fct",
        "Description": "fairfield co, CT",
        "ShortDescription": "fairfield",
        "SubAreaID": 9
      }
    ],
    "Timezone": "America/New_York"
  },
  {
    "Abbreviation": "bos",
    "AreaID": 4,
    "Country": "US",
    "Description": "boston",
    "Hostname": "boston",
    "Latitude": 42.358299,
    "Longitude": -71.060303,
    "Region": "MA",
    "ShortDescription": "boston",
    "SubAreas": [
      {
        "Abbreviation": "gbs",
        "Description": "boston/cambridge/brookline",
        "ShortDescription": "boston/camb/brook",
        "SubAreaID": 1
      },
      {
        "Abbreviation": "nwb",
        "Description": "northwest/merrimack",
        "ShortDescription": "northwest/merrimack",
        "SubAreaID": 2
      },
      {
        "Abbreviation": "bmw",
        "Description": "metro west",
        "ShortDescription": "metro west",
        "SubAreaID": 3
      },
      {
        "Abbreviation": "nos",
        "Description": "north shore",
        "ShortDescription": "north shore",
        "SubAreaID": 4
      },
      {
        "Abbreviation": "sob",
        "Description": "south shore",
        "ShortDescription": "south shore",
        "SubAreaID": 5
      }
    ],
    "Timezone": "America/New_York"
  },
  {
    "Abbreviation": "lax",
    "AreaID": 7,
    "Country": "US",
    "Description": "los angeles",
    "Hostname": "losangeles",
    "Latitude": 34.0522,
    "Longitude": -118.242996,
    "Region": "CA",
    "ShortDescription": "los angeles",
    "SubAreas": [
      {
        "Abbreviation": "wst",
        "Description": "westside-southbay-310",
        "ShortDescription": "westside-southbay",
        "SubAreaID": 1
      },
      {
        "Abbreviation": "sfv",
        "Description": "san fernando valley",
        "ShortDescription": "SF valley",
        "SubAreaID": 2
      },
      {
        "Abbreviation": "lac",
        "Description": "central LA 213/323",
        "ShortDescription": "central LA",
        "SubAreaID": 3
      },
      {
        "Abbreviation": "sgv",
        "Description": "san gabriel valley",
        "ShortDescription": "san gabriel valley",
        "SubAreaID": 4
      },
      {
        "Abbreviation": "lgb",
        "Description": "long beach / 562",
        "ShortDescription": "long beach / 562",
        "SubAreaID": 5
      },
      {
        "Abbreviation": "ant",
        "Description": "antelope valley",
        "ShortDescription": "antelope valley",
        "SubAreaID": 6
      }
    ],
    "Timezone": "America/Los_Angeles"
  },
  {
    "Abbreviation": "sdo",
    "AreaID": 8,
    "Country": "US",
    "Description": "san diego",
    "Hostname": "sandiego",
    "Latitude": 32.715302,
    "Longitude": -117.155998,
    "Region": "CA",
    "ShortDescription": "san diego",
    "SubAreas": [
      {
        "Abbreviation": "csd",
        "Description": "city of san diego",
        "ShortDescription": "city of san diego",
        "SubAreaID": 1
      },
      {
        "Abbreviation": "nsd",
        "Description": "north san diego county",
        "ShortDescription": "north SD county",
        "SubAreaID": 2
      },
      {
        "Abbreviation": "esd",
        "Description": "east san diego county",
        "ShortDescription": "east SD county",
        "SubAreaID": 3
      },
      {
        "Abbreviation": "ssd",
        "Description": "south san diego county",
        "ShortDescription": "south SD county",
        "SubAreaID": 4
      }
    ],
    "Timezone": "America/Los_Angeles"
  },
  {
    "Abbreviation": "pdx",
    "AreaID": 9,
    "Country": "US",
    "Description": "portland, OR",
    "Hostname": "portland",
    "Latitude": 45.523602,
    "Longitude": -122.675003,
    "Region": "OR",
    "ShortDescription": "portland",
    "SubAreas": [
      {
        "Abbreviation": "mlt",
        "Description": "multnomah county",
        "ShortDescription": "multnomah co",
        "SubAreaID": 1
      },
      {
        "Abbreviation": "wsc",
        "Description": "washington county",
        "ShortDescription": "washington co",
        "SubAreaID": 2
      },
      {
        "Abbreviation": "clk",
        "Description": "clark/cowlitz WA",
        "ShortDescription": "clark/cowlitz",
        "SubAreaID": 3
      },
      {
        "Abbreviation": "clc",
        "Description": "clackamas county",
        "ShortDescription": "clackamas co",
        "SubAreaID": 4
      },
      {
        "Abbreviation": "nco",
        "Description": "north coast",
        "ShortDescription": "north coast",
        "SubAreaID": 5
      },
      {
        "Abbreviation": "yam",
        "Description": "yamhill co",
        "ShortDescription": "yamhill co",
        "SubAreaID": 6
      },
      {
        "Abbreviation": "grg",
        "Description": "columbia gorge",
        "ShortDescription": "columbia gorge",
        "SubAreaID": 7
      }
    ],
    "Timezone": "America/Los_Angeles"
  },
  {
    "Abbreviation": "wdc",
    "AreaID": 10,
    "Country": "US",
    "Description": "washington, DC",
    "Hostname": "washingtondc",
    "Latitude": 38.889999,
    "Longitude": -77.029999,
    "Region": "DC",
    "ShortDescription": "washington, DC",
    "SubAreas": [
      {
        "Abbreviation": "doc",
        "Description": "district of columbia",
        "ShortDescription": "district of columbia",
        "SubAreaID": 1
      },
      {
        "Abbreviation": "nva",
        "Description": "northern virginia",
        "ShortDescription": "northern virginia",
        "SubAreaID": 2
      },
      {
        "Abbreviation": "mld",
        "Description": "maryland",
        "ShortDescription": "maryland",
        "SubAreaID": 3
      }
    ],
    "Timezone": "America/New_York"
  },
  {
    "Abbreviation": "chi",
    "AreaID": 11,
    "Country": "US",
    "Description": "chicago",
    "Hostname": "chicago",
    "Latitude": 41.849998,
    "Longitude": -87.650002,
    "Region": "IL",
    "ShortDescription": "chicago",
    "SubAreas": [
      {
        "Abbreviation": "chc",
        "Description": "city of chicago",
        "ShortDescription": "city of chicago",
        "SubAreaID": 1
      },
      {
        "Abbreviation": "nch",
        "Description": "north chicagoland",
        "ShortDescription": "north chicagoland",
        "SubAreaID": 2
      },
      {
        "Abbreviation": "wcl",
        "Description": "west chicagoland",
        "ShortDescription": "west chicagoland",
        "SubAreaID": 3
      },
      {
        "Abbreviation": "sox",
        "Description": "south chicagoland",
        "ShortDescription": "south chicagoland",
        "SubAreaID": 4
      },
      {
        "Abbreviation": "nwi",
        "Description": "northwest indiana",
        "ShortDescription": "northwest indiana",
        "SubAreaID": 5
      },
      {
        "Abbreviation": "nwc",
        "Description": "northwest suburbs",
        "ShortDescription": "northwest suburbs",
        "SubAreaID": 6
      }
    ],
    "Timezone": "America/Chicago"
  },
  {
    "Abbreviation": "sac",
    "AreaID": 12,
    "Country": "US",
    "Description": "sacramento",
    "Hostname": "sacramento",
    "Latitude": 38.581699,
    "Longitude": -121.492996,
    "Region": "CA",
    "ShortDescription": "sacramento",
    "Timezone": "America/Los_Angeles"
  },
  {
    "Abbreviation": "den",
    "AreaID": 13,
    "Country": "US",
    "Description": "denver, CO",
    "Hostname": "denver",
    "Latitude": 39.739201,
    "Longitude": -104.984001,
    "Region": "CO",
    "ShortDescription": "denver",
    "Timezone": "America/Denver"
  },
  {
    "Abbreviation": "atl",
    "AreaID": 14,
    "Country": "US",
    "Description": "atlanta, GA",
    "Hostname": "atlanta",
    "Latitude": 33.748901,
    "Longitude": -84.3881,
    "Region": "GA",
    "ShortDescription": "atlanta",
    "SubAreas": [
      {
        "Abbreviation": "atl",
        "Description": "city of atlanta",
        "ShortDescription": "atlanta",
        "SubAreaID": 1
      },
      {
        "Abbreviation": "nat",
        "Description": "otp north",
        "ShortDescription": "otp north",
        "SubAreaID": 2
      },
      {
        "Abbreviation": "eat",
        "Description": "otp east",
        "ShortDescription": "otp east",
        "SubAreaID": 3
      },
      {
        "Abbreviation": "sat",
        "Description": "otp south",
        "ShortDescription": "otp south",
        "SubAreaID": 4
      },
      {
        "Abbreviation": "wat",
        "Description": "otp west",
        "ShortDescription": "otp west",
        "SubAreaID": 5
      }
    ],
    "Timezone": "America/New_York"
  },
  {
    "Abbreviation": "aus",
    "AreaID": 15,
    "Country": "US",
    "Description": "austin, TX",
    "Hostname": "austin",
    "Latitude": 30.266899,
    "Longitude": -97.742798,
    "Region": "TX",
    "ShortDescription": "austin",
    "Timezone": "America/Chicago"
  },
  {
    "Abbreviation": "van",
    "AreaID": 16,
    "Country": "CA",
    "Description": "vancouver, BC",
    "Hostname": "vancouver",
    "Latitude": 49.2505,
    "Longitude": -123.112,
    "Region": "BC",
    "ShortDescription": "vancouver, BC",
    "SubAreas": [
      {
        "Abbreviation": "van",
        "Description": "city of vancouver",
        "ShortDescription": "vancouver",
        "SubAreaID": 1
      },
      {
        "Abbreviation": "nvn",
        "Description": "north shore",
        "ShortDescription": "north shore",
        "SubAreaID": 2
      },
      {
        "Abbreviation": "bnc",
        "Description": "burnaby/newwest",
        "ShortDescription": "burnaby/newwest",
        "SubAreaID": 3
      },
      {
        "Abbreviation": "rds",
        "Description": "delta/surrey/langley",
        "ShortDescription": "delta/surrey/langley",
        "SubAreaID": 4
      },
      {
        "Abbreviation": "pml",
        "Description": "tricities/pitt/maple",
        "ShortDescription": "tricities/pitt/maple",
        "SubAreaID": 5
      },
      {
        "Abbreviation": "rch",
        "Description": "richmond",
        "ShortDescription": "richmond",
        "SubAreaID": 6
      }
    ],
    "Timezone": "America/Vancouver"
  },
  {
    "Abbreviation": "phi",
    "AreaID": 17,
    "Country": "US",
    "Description": "philadelphia",
    "Hostname": "philadelphia",
    "Latitude": 39.952202,
    "Longitude": -75.1642,
    "Region": "PA",
    "ShortDescription": "philadelphia",
    "Timezone": "America/New_York"
  },
  {
    "Abbreviation": "phx",
    "AreaID": 18,
    "Country": "US",
    "Description": "phoenix, AZ",
    "Hostname": "phoenix",
    "Latitude": 33.448299,
    "Longitude": -112.072998,
    "Region": "AZ",
    "ShortDescription": "phoenix",
    "SubAreas": [
      {
        "Abbreviation": "cph",
        "Description": "central/south phx",
        "ShortDescription": "central/south phx",
        "SubAreaID": 1
      },
      {
        "Abbreviation": "evl",
        "Description": "east valley",
        "ShortDescription": "east valley",
        "SubAreaID": 2
      },
      {
        "Abbreviation": "nph",
        "Description": "phx north",
        "ShortDescription": "phx north",
        "SubAreaID": 3
      },
      {
        "Abbreviation": "wvl",
        "Description": "west valley",
        "ShortDescription": "west valley",
        "SubAreaID": 4
      }
    ],
    "Timezone": "America/Phoenix"
  },
  {
    "Abbreviation": "min",
    "AreaID": 19,
    "Country": "US",
    "Description": "minneapolis / st paul",
    "Hostname": "minneapolis",
    "Latitude": 44.98,
    "Longitude": -93.263603,
    "Region": "MN",
    "ShortDescription": "minneapolis",
    "SubAreas": [
      {
        "Abbreviation": "hnp",
        "Description": "hennepin county",
        "ShortDescription": "hennepin co",
        "SubAreaID": 1
      },
      {
        "Abbreviation": "ram",
        "Description": "ramsey county",
        "ShortDescription": "ramsey co",
        "SubAreaID": 2
      },
      {
        "Abbreviation": "ank",
        "Description": "anoka/chisago/isanti",
        "ShortDescription": "anok/chis/isa",
        "SubAreaID": 3
      },
      {
        "Abbreviation": "wsh",
        "Description": "washington co / WI",
        "ShortDescription": "washington/WI",
        "SubAreaID": 4
      },
      {
        "Abbreviation": "dak",
        "Description": "dakota / scott",
        "ShortDescription": "dakota/scott",
        "SubAreaID": 5
      },
      {
        "Abbreviation": "csw",
        "Description": "carver/sherburne/wright",
        "ShortDescription": "carv/sher/wri",
        "SubAreaID": 6
      }
    ],
    "Timezone": "America/Chicago"
  },
  {
    "Abbreviation": "mia",
    "AreaID": 20,
    "Country": "US",
    "Description": "south florida",
    "Hostname": "miami",
    "Latitude": 25.773899,
    "Longitude": -80.193901,
    "Region": "FL",
    "ShortDescription": "south florida",
    "SubAreas": [
      {
        "Abbreviation": "mdc",
        "Description": "miami / dade county",
        "ShortDescription": "miami / dade",
        "SubAreaID": 1
      },
      {
        "Abbreviation": "brw",
        "Description": "broward county",
        "ShortDescription": "broward county",
        "SubAreaID": 2
      },
      {
        "Abbreviation": "pbc",
        "Description": "palm beach county",
        "ShortDescription": "palm beach co",
        "SubAreaID": 3
      }
    ],
    "Timezone": "America/New_York"
  },
  {
    "Abbreviation": "dal",
    "AreaID": 21,
    "Country": "US",
    "Description": "dallas / fort worth",
    "Hostname": "dallas",
    "Latitude": 32.783298,
    "Longitude": -96.800003,
    "Region": "TX",
    "ShortDescription": "dallas",
    "SubAreas": [
      {
        "Abbreviation": "dal",
        "Description": "dallas",
        "ShortDescription": "dallas",
        "SubAreaID": 1
      },
      {
        "Abbreviation": "ftw",
        "Description": "fort worth",
        "ShortDescription": "fort worth",
        "SubAreaID": 2
      },
      {
        "Abbreviation": "mdf",
        "Description": "mid cities",
        "ShortDescription": "mid cities",
        "SubAreaID": 3
      },
      {
        "Abbreviation": "ndf",
        "Description": "north DFW",
        "ShortDescription": "north DFW",
        "SubAreaID": 4
      },
      {
        "Abbreviation": "sdf",
        "Description": "south DFW",
        "ShortDescription": "south DFW",
        "SubAreaID": 5
      }
    ],
    "Timezone": "America/Chicago"
  },
  {
    "Abbreviation": "det",
    "AreaID": 22,
    "Country": "US",
    "Description": "detroit metro",
    "Hostname": "detroit",
    "Latitude": 42.331402,
    "Longitude": -83.045799,
    "Region": "MI",
    "ShortDescription": "detroit metro",
    "SubAreas": [
      {
        "Abbreviation": "mcb",
        "Description": "macomb county",
        "ShortDescription": "macomb co",
        "SubAreaID": 1
      },
      {
        "Abbreviation": "wyn",
        "Description": "wayne county",
        "ShortDescription": "wayne co",
        "SubAreaID": 2
      },
      {
        "Abbreviation": "okl",
        "Description": "oakland county",
        "ShortDescription": "oakland co",
        "SubAreaID": 3
      }
    ],
    "Timezone": "America/New_York"
  },
  {
    "Abbreviation": "hou",
    "AreaID": 23,
    "Country": "US",
    "Description": "houston, TX",
    "Hostname": "houston",
    "Latitude": 29.7631,
    "Longitude": -95.363098,
    "Region": "TX",
    "ShortDescription": "houston",
    "Timezone": "America/Chicago"
  },
  {
    "Abbreviation": "ldn",
    "AreaID": 24,
    "Country": "GB",
    "Description": "London, UK",
    "Hostname": "london",
    "Latitude": 51.517101,
    "Longitude": -0.106196,
    "Region": "",
    "ShortDescription": "london, UK",
    "Timezone": "Europe/London"
  },
  {
    "Abbreviation": "tor",
    "AreaID": 25,
    "Country": "CA",
    "Description": "toronto",
    "Hostname": "toronto",
    "Latitude": 43.648102,
    "Longitude": -79.404198,
    "Region": "ON",
    "ShortDescription": "toronto",
    "SubAreas": [
      {
        "Abbreviation": "tor",
        "Description": "city of toronto",
        "ShortDescription": "city of toronto",
        "SubAreaID": 1
      },
      {
        "Abbreviation": "drh",
        "Description": "durham region",
        "ShortDescription": "durham region",
        "SubAreaID": 2
      },
      {
        "Abbreviation": "yrk",
        "Description": "york region",
        "ShortDescription": "york region",
        "SubAreaID": 3
      },
      {
        "Abbreviation": "bra",
        "Description": "brampton-caledon",
        "ShortDescription": "brampton",
        "SubAreaID": 4
      },
      {
        "Abbreviation": "mss",
        "Description": "mississauga",
        "ShortDescription": "mississauga",
        "SubAreaID": 5
      },
      {
        "Abbreviation": "oak",
        "Description": "oakville-milton",
        "ShortDescription": "oakville",
        "SubAreaID": 6
      }
    ],
    "Timezone": "America/Toronto"
  },
  {
    "Abbreviation": "lvg",
    "AreaID": 26,
    "Country": "US",
    "Description": "las vegas",
    "Hostname": "lasvegas",
    "Latitude": 36.174999,
    "Longitude": -115.136002,
    "Region": "NV",
    "ShortDescription": "las vegas",
    "Timezone": "America/Los_Angeles"
  },
  {
    "Abbreviation": "cle",
    "AreaID": 27,
    "Country": "US",
    "Description": "cleveland, OH",
    "Hostname": "cleveland",
    "Latitude": 41.499401,
    "Longitude": -81.695602,
    "Region": "OH",
    "ShortDescription": "cleveland",
    "Timezone": "America/New_York"
  },
  {
    "Abbreviation": "hnl",
    "AreaID": 28,
    "Country": "US",
    "Description": "hawaii",
    "Hostname": "honolulu",
    "Latitude": 21.311399,
    "Longitude": -157.796005,
    "Region": "HI",
    "ShortDescription": "hawaii",
    "SubAreas": [
      {
        "Abbreviation": "oah",
        "Description": "oahu",
        "ShortDescription": "oahu",
        "SubAreaID": 1
      },
      {
        "Abbreviation": "big",
        "Description": "big island",
        "ShortDescription": "big island",
        "SubAreaID": 2
      },
      {
        "Abbreviation": "mau",
        "Description": "maui",
        "ShortDescription": "maui",
        "SubAreaID": 3
      },
      {
        "Abbreviation": "kau",
        "Description": "kauai",
        "ShortDescription": "kauai",
        "SubAreaID": 4
      },
      {
        "Abbreviation": "mol",
        "Description": "molokai",
        "ShortDescription": "molokai",
        "SubAreaID": 5
      }
    ],
    "Timezone": "Pacific/Honolulu"
  },
  {
    "Abbreviation": "stl",
    "AreaID": 29,
    "Country": "US",
    "Description": "st louis, MO",
    "Hostname": "stlouis",
    "Latitude": 38.627701,
    "Longitude": -90.242798,
    "Region": "MO",
    "ShortDescription": "st louis",
    "Timezone": "America/Chicago"
  },
  {
    "Abbreviation": "ksc",
    "AreaID": 30,
    "Country": "US",
    "Description": "kansas city, MO",
    "Hostname": "kansascity",
    "Latitude": 39.099701,
    "Longitude": -94.5783,
    "Region": "MO",
    "ShortDescription": "kansas city",
    "Timezone": "America/Chicago"
  },
  {
    "Abbreviation": "nor",
    "AreaID": 31,
    "Country": "US",
    "Description": "new orleans",
    "Hostname": "neworleans",
    "Latitude": 29.972799,
    "Longitude": -90.058998,
    "Region": "LA",
    "ShortDescription": "new orleans",
    "Timezone": "America/Chicago"
  },
  {
    "Abbreviation": "nsh",
    "AreaID": 32,
    "Country": "US",
    "Description": "nashville, TN",
    "Hostname": "nashville",
    "Latitude": 36.165798,
    "Longitude": -86.784401,
    "Region": "TN",
    "ShortDescription": "nashville",
    "Timezone": "America/Chicago"
  },
  {
    "Abbreviation": "pit",
    "AreaID": 33,
    "Country": "US",
    "Description": "pittsburgh, PA",
    "Hostname": "pittsburgh",
    "Latitude": 40.440601,
    "Longitude": -79.996101,
    "Region": "PA",
    "ShortDescription": "pittsburgh",
    "Timezone": "America/New_York"
  },
  {
    "Abbreviation": "bal",
    "AreaID": 34,
    "Country": "US",
    "Description": "baltimore, MD",
    "Hostname": "baltimore",
    "Latitude": 39.307999,
    "Longitude": -76.616997,
    "Region": "MD",
    "ShortDescription": "baltimore",
    "Timezone": "America/New_York"
  },
  {
    "Abbreviation": "cin",
    "AreaID": 35,
    "Country": "US",
    "Description": "cincinnati, OH",
    "Hostname": "cincinnati",
    "Latitude": 39.1619,
    "Longitude": -84.456902,
    "Region": "OH",
    "ShortDescription": "cincinnati",
    "Timezone": "America/New_York"
  },
  {
    "Abbreviation": "ral",
    "AreaID": 36,
    "Country": "US",
    "Description": "raleigh / durham / CH",
    "Hostname": "raleigh",
    "Latitude": 35.7719,
    "Longitude": -78.638901,
    "Region": "NC",
    "ShortDescription": "raleigh",
    "Timezone": "America/New_York"
  },
  {
    "Abbreviation": "tpa",
    "AreaID": 37,
    "Country": "US",
    "Description": "tampa bay area",
    "Hostname": "tampa",
    "Latitude": 28,
    "Longitude": -82.449997,
    "Region": "FL",
    "ShortDescription": "tampa bay",
    "SubAreas": [
      {
        "Abbreviation": "hdo",
        "Description": "hernando co",
        "ShortDescription": "hernando co",
        "SubAreaID": 1
      },
      {
        "Abbreviation": "hil",
        "Description": "hillsborough co",
        "ShortDescription": "hillsborough co",
        "SubAreaID": 2
      },
      {
        "Abbreviation": "psc",
        "Description": "pasco co",
        "ShortDescription": "pasco co",
        "SubAreaID": 3
      },
      {
        "Abbreviation": "pnl",
        "Description": "pinellas co",
        "ShortDescription": "pinellas co",
        "SubAreaID": 4
      }
    ],
    "Timezone": "America/New_York"
  },
  {
    "Abbreviation": "prv",
    "AreaID": 38,
    "Country": "US",
    "Description": "rhode island",
    "Hostname": "providence",
    "Latitude": 41.8302,
    "Longitude": -71.409103,
    "Region": "RI",
    "ShortDescription": "rhode island",
    "Timezone": "America/New_York"
  },
  {
    "Abbreviation": "orl",
    "AreaID": 39,
    "Country": "US",
    "Description": "orlando, FL",
    "Hostname": "orlando",
    "Latitude": 28.538099,
    "Longitude": -81.379402,
    "Region": "FL",
    "ShortDescription": "orlando",
    "Timezone": "America/New_York"
  },
  {
    "Abbreviation": "buf",
    "AreaID": 40,
    "Country": "US",
    "Description": "buffalo, NY",
    "Hostname": "buffalo",
    "Latitude": 42.886398,
    "Longitude": -78.878601,
    "Region": "NY",
    "ShortDescription": "buffalo",
    "Timezone": "America/New_York"
  },
  {
    "Abbreviation": "cha",
    "AreaID": 41,
    "Country": "US",
    "Description": "charlotte, NC",
    "Hostname": "charlotte",
    "Latitude": 35.226898,
    "Longitude": -80.8433,
    "Region": "NC",
    "ShortDescription": "charlotte",
    "Timezone": "America/New_York"
  },
  {
    "Abbreviation": "col",
    "AreaID": 42,
    "Country": "US",
    "Description": "columbus, OH",
    "Hostname": "columbus",
    "Latitude": 39.961102,
    "Longitude": -82.998901,
    "Region": "OH",
    "ShortDescription": "columbus, OH",
    "Timezone": "America/New_York"
  },
  {
    "Abbreviation": "fre",
    "AreaID": 43,
    "Country": "US",
    "Description": "fresno / madera",
    "Hostname": "fresno",
    "Latitude": 36.747799,
    "Longitude": -119.771004,
    "Region": "CA",
    "ShortDescription": "fresno",
    "Timezone": "America/Los_Angeles"
  },
  {
    "Abbreviation": "htf",
    "AreaID": 44,
    "Country": "US",
    "Description": "hartford, CT",
    "Hostname": "hartford",
    "Latitude": 41.763599,
    "Longitude": -72.6856,
    "Region": "CT",
    "ShortDescription": "hartford",
    "Timezone": "America/New_York"
  },
  {
    "Abbreviation": "ind",
    "AreaID": 45,
    "Country": "US",
    "Description": "indianapolis",
    "Hostname": "indianapolis",
    "Latitude": 39.768299,
    "Longitude": -86.158096,
    "Region": "IN",
    "ShortDescription": "indianapolis",
    "Timezone": "America/New_York"
  },
  {
    "Abbreviation": "mem",
    "AreaID": 46,
    "Country": "US",
    "Description": "memphis, TN",
    "Hostname": "memphis",
    "Latitude": 35.149399,
    "Longitude": -90.048897,
    "Region": "TN",
    "ShortDescription": "memphis",
    "Timezone": "America/Chicago"
  },
  {
    "Abbreviation": "mil",
    "AreaID": 47,
    "Country": "US",
    "Description": "milwaukee, WI",
    "Hostname": "milwaukee",
    "Latitude": 43.038898,
    "Longitude": -87.906403,
    "Region": "WI",
    "ShortDescription": "milwaukee",
    "Timezone": "America/Chicago"
  },
  {
    "Abbreviation": "nfk",
    "AreaID": 48,
    "Country": "US",
    "Description": "norfolk / hampton roads",
    "Hostname": "norfolk",
    "Latitude": 36.84,
    "Longitude": -76.269997,
    "Region": "VA",
    "ShortDescription": "norfolk",
    "Timezone": "America/New_York"
  },
  {
    "Abbreviation": "mon",
    "AreaID": 49,
    "Country": "CA",
    "Description": "montreal, QC",
    "Hostname": "montreal",
    "Latitude": 45.508099,
    "Longitude": -73.555,
    "Region": "QC",
    "ShortDescription": "montreal",
    "Timezone": "America/Toronto"
  },
  {
    "Abbreviation": "abq",
    "AreaID": 50,
    "Country": "US",
    "Description": "albuquerque",
    "Hostname": "albuquerque",
    "Latitude": 35.0844,
    "Longitude": -106.651001,
    "Region": "NM",
    "ShortDescription": "albuquerque",
    "Timezone": "America/Denver"
  },
  {
    "Abbreviation": "anc",
    "AreaID": 51,
    "Country": "US",
    "Description": "anchorage / mat-su",
    "Hostname": "anchorage",
    "Latitude": 61.196201,
    "Longitude": -149.886002,
    "Region": "AK",
    "ShortDescription": "anchorage",
    "Timezone": "America/Anchorage"
  },
  {
    "Abbreviation": "boi",
    "AreaID": 52,
    "Country": "US",
    "Description": "boise, ID",
    "Hostname": "boise",
    "Latitude": 43.613602,
    "Longitude": -116.202003,
    "Region": "ID",
    "ShortDescription": "boise",
    "Timezone": "America/Denver"
  },
  {
    "Abbreviation": "sat",
    "AreaID": 53,
    "Country": "US",
    "Description": "san antonio",
    "Hostname": "sanantonio",
    "Latitude": 29.423901,
    "Longitude": -98.493301,
    "Region": "TX",
    "ShortDescription": "san antonio",
    "Timezone": "America/Chicago"
  },
  {
    "Abbreviation": "okc",
    "AreaID": 54,
    "Country": "US",
    "Description": "oklahoma city",
    "Hostname": "oklahomacity",
    "Latitude": 35.467499,
    "Longitude": -97.516098,
    "Region": "OK",
    "ShortDescription": "oklahoma city",
    "Timezone": "America/Chicago"
  },
  {
    "Abbreviation": "oma",
    "AreaID": 55,
    "Country": "US",
    "Description": "omaha / council bluffs",
    "Hostname": "omaha",
    "Latitude": 41.258598,
    "Longitude": -95.9375,
    "Region": "NE",
    "ShortDescription": "omaha",
    "Timezone": "America/Chicago"
  },
  {
    "Abbreviation": "slc",
    "AreaID": 56,
    "Country": "US",
    "Description": "salt lake city",
    "Hostname": "saltlakecity",
    "Latitude": 40.760799,
    "Longitude": -111.889999,
    "Region": "UT",
    "ShortDescription": "salt lake",
    "Timezone": "America/Denver"
  },
  {
    "Abbreviation": "tus",
    "AreaID": 57,
    "Country": "US",
    "Description": "tucson, AZ",
    "Hostname": "tucson",
    "Latitude": 32.221699,
    "Longitude": -110.926003,
    "Region": "AZ",
    "ShortDescription": "tucson",
    "Timezone": "America/Phoenix"
  },
  {
    "Abbreviation": "lou",
    "AreaID": 58,
    "Country": "US",
    "Description": "louisville, KY",
    "Hostname": "louisville",
    "Latitude": 38.2542,
    "Longitude": -85.759399,
    "Region": "KY",
    "ShortDescription": "louisville",
    "Timezone": "America/New_York"
  },
  {
    "Abbreviation": "alb",
    "AreaID": 59,
    "Country": "US",
    "Description": "albany, NY",
    "Hostname": "albany",
    "Latitude": 42.6525,
    "Longitude": -73.756699,
    "Region": "NY",
    "ShortDescription": "albany, NY",
    "Timezone": "America/New_York"
  },
  {
    "Abbreviation": "ric",
    "AreaID": 60,
    "Country": "US",
    "Description": "richmond, VA",
    "Hostname": "richmond",
    "Latitude": 37.5383,
    "Longitude": -77.461502,
    "Region": "VA",
    "ShortDescription": "richmond, VA",
    "Timezone": "America/New_York"
  },
  {
    "Abbreviation": "gbo",
    "AreaID": 61,
    "Country": "US",
    "Description": "greensboro, NC",
    "Hostname": "greensboro",
    "Latitude": 36.072498,
    "Longitude": -79.792198,
    "Region": "NC",
    "ShortDescription": "greensboro",
    "Timezone": "America/New_York"
  },
  {
    "Abbreviation": "sba",
    "AreaID": 62,
    "Country": "US",
    "Description": "santa barbara",
    "Hostname": "santabarbara",
    "Latitude": 34.420799,
    "Longitude": -119.696999,
    "Region": "CA",
    "ShortDescription": "santa barbara",
    "Timezone": "America/Los_Angeles"
  },
  {
    "Abbreviation": "bak",
    "AreaID": 63,
    "Country": "US",
    "Description": "bakersfield, CA",
    "Hostname": "bakersfield",
    "Latitude": 35.373299,
    "Longitude": -119.017998,
    "Region": "CA",
    "ShortDescription": "bakersfield",
    "Timezone": "America/Los_Angeles"
  },
  {
    "Abbreviation": "syd",
    "AreaID": 64,
    "Country": "AU",
    "Description": "sydney, NSW",
    "Hostname": "sydney",
    "Latitude": -33.868301,
    "Longitude": 151.209,
    "Region": "NSW",
    "ShortDescription": "sydney",
    "Timezone": "Australia/Sydney"
  },
  {
    "Abbreviation": "mel",
    "AreaID": 65,
    "Country": "AU",
    "Description": "melbourne, VIC",
    "Hostname": "melbourne",
    "Latitude": -37.783298,
    "Longitude": 144.966995,
    "Region": "VIC",
    "ShortDescription": "melbourne",
    "Timezone": "Australia/Hobart"
  },
  {
    "Abbreviation": "bne",
    "AreaID": 66,
    "Country": "AU",
    "Description": "brisbane, QLD",
    "Hostname": "brisbane",
    "Latitude": -27.4667,
    "Longitude": 153.033005,
    "Region": "QLD",
    "ShortDescription": "brisbane",
    "Timezone": "Australia/Brisbane"
  },
  {
    "Abbreviation": "per",
    "AreaID": 67,
    "Country": "AU",
    "Description": "perth, WA",
    "Hostname": "perth",
    "Latitude": -31.9554,
    "Longitude": 115.859001,
    "Region": "WA",
    "ShortDescription": "perth",
    "Timezone": "Australia/Perth"
  },
  {
    "Abbreviation": "adl",
    "AreaID": 68,
    "Country": "AU",
    "Description": "adelaide, SA",
    "Hostname": "adelaide",
    "Latitude": -34.9333,
    "Longitude": 138.582993,
    "Region": "SA",
    "ShortDescription": "adelaide",
    "Timezone": "Australia/Adelaide"
  },
  {
    "Abbreviation": "akl",
    "AreaID": 69,
    "Country": "NZ",
    "Description": "auckland, NZ",
    "Hostname": "auckland",
    "Latitude": -36.853001,
    "Longitude": 174.764999,
    "Region": "",
    "ShortDescription": "auckland",
    "Timezone": "Pacific/Auckland"
  },
  {
    "Abbreviation": "tul",
    "AreaID": 70,
    "Country": "US",
    "Description": "tulsa, OK",
    "Hostname": "tulsa",
    "Latitude": 36.1539,
    "Longitude": -95.9925,
    "Region": "OK",
    "ShortDescription": "tulsa",
    "Timezone": "America/Chicago"
  },
  {
    "Abbreviation": "man",
    "AreaID": 71,
    "Country": "GB",
    "Description": "manchester, UK",
    "Hostname": "manchester",
    "Latitude": 53.48,
    "Longitude": -2.24,
    "Region": "",
    "ShortDescription": "manchester",
    "Timezone": "Europe/London"
  },
  {
    "Abbreviation": "bhx",
    "AreaID": 72,
    "Country": "GB",
    "Description": "birmingham / west mids",
    "Hostname": "birmingham",
    "Latitude": 52.48,
    "Longitude": -1.91,
    "Region": "",
    "ShortDescription": "birmingham, UK",
    "Timezone": "Europe/London"
  },
  {
    "Abbreviation": "gla",
    "AreaID": 73,
    "Country": "GB",
    "Description": "glasgow",
    "Hostname": "glasgow",
    "Latitude": 55.869999,
    "Longitude": -4.27,
    "Region": "",
    "ShortDescription": "glasgow",
    "Timezone": "Europe/London"
  },
  {
    "Abbreviation": "dub",
    "AreaID": 74,
    "Country": "IE",
    "Description": "dublin, IE",
    "Hostname": "dublin",
    "Latitude": 53.3428,
    "Longitude": -6.2661,
    "Region": "",
    "ShortDescription": "dublin",
    "Timezone": "Europe/Dublin"
  },
  {
    "Abbreviation": "edi",
    "AreaID": 75,
    "Country": "GB",
    "Description": "edinburgh",
    "Hostname": "edinburgh",
    "Latitude": 55.950001,
    "Longitude": -3.22,
    "Region": "",
    "ShortDescription": "edinburgh",
    "Timezone": "Europe/London"
  },
  {
    "Abbreviation": "ott",
    "AreaID": 76,
    "Country": "CA",
    "Description": "ottawa-hull-gatineau",
    "Hostname": "ottawa",
    "Latitude": 45.421398,
    "Longitude": -75.691902,
    "Region": "ON",
    "ShortDescription": "ottawa",
    "Timezone": "America/Toronto"
  },
  {
    "Abbreviation": "clg",
    "AreaID": 77,
    "Country": "CA",
    "Description": "calgary, AB",
    "Hostname": "calgary",
    "Latitude": 51.054401,
    "Longitude": -114.067001,
    "Region": "AB",
    "ShortDescription": "calgary",
    "Timezone": "America/Edmonton"
  },
  {
    "Abbreviation": "edm",
    "AreaID": 78,
    "Country": "CA",
    "Description": "edmonton, AB",
    "Hostname": "edmonton",
    "Latitude": 53.547199,
    "Longitude": -113.500999,
    "Region": "AB",
    "ShortDescription": "edmonton",
    "Timezone": "America/Edmonton"
  },
  {
    "Abbreviation": "win",
    "AreaID": 79,
    "Country": "CA",
    "Description": "winnipeg, MB",
    "Hostname": "winnipeg",
    "Latitude": 49.883301,
    "Longitude": -97.150002,
    "Region": "MB",
    "ShortDescription": "winnipeg",
    "Timezone": "America/Winnipeg"
  },
  {
    "Abbreviation": "jax",
    "AreaID": 80,
    "Country": "US",
    "Description": "jacksonville, FL",
    "Hostname": "jacksonville",
    "Latitude": 30.3319,
    "Longitude": -81.6558,
    "Region": "FL",
    "ShortDescription": "jacksonville, FL",
    "Timezone": "America/New_York"
  },
  {
    "Abbreviation": "par",
    "AreaID": 81,
    "Country": "FR",
    "Description": "paris, FR",
    "Hostname": "paris",
    "Latitude": 48.874199,
    "Longitude": 2.34695,
    "Region": "",
    "ShortDescription": "paris",
    "Timezone": "Europe/Paris"
  },
  {
    "Abbreviation": "ams",
    "AreaID": 82,
    "Country": "NL",
    "Description": "amsterdam / randstad",
    "Hostname": "amsterdam",
    "Latitude": 52.369999,
    "Longitude": 4.89,
    "Region": "",
    "ShortDescription": "amsterdam",
    "Timezone": "Europe/Amsterdam"
  },
  {
    "Abbreviation": "bar",
    "AreaID": 83,
    "Country": "ES",
    "Description": "barcelona",
    "Hostname": "barcelona",
    "Latitude": 41.3857,
    "Longitude": 2.16994,
    "Region": "",
    "ShortDescription": "barcelona",
    "Timezone": "Europe/Madrid"
  },
  {
    "Abbreviation": "bng",
    "AreaID": 84,
    "Country": "IN",
    "Description": "bangalore",
    "Hostname": "bangalore",
    "Latitude": 12.9833,
    "Longitude": 77.583298,
    "Region": "",
    "ShortDescription": "bangalore",
    "Timezone": "Asia/Calcutta"
  },
  {
    "Abbreviation": "mum",
    "AreaID": 85,
    "Country": "IN",
    "Description": "mumbai",
    "Hostname": "mumbai",
    "Latitude": 18.964701,
    "Longitude": 72.825798,
    "Region": "",
    "ShortDescription": "mumbai",
    "Timezone": "Asia/Calcutta"
  },
  {
    "Abbreviation": "del",
    "AreaID": 86,
    "Country": "IN",
    "Description": "delhi",
    "Hostname": "delhi",
    "Latitude": 28.6544,
    "Longitude": 77.225601,
    "Region": "",
    "ShortDescription": "delhi",
    "Timezone": "Asia/Calcutta"
  },
  {
    "Abbreviation": "hkg",
    "AreaID": 87,
    "Country": "HK",
    "Description": "hong kong",
    "Hostname": "hongkong",
    "Latitude": 22.299999,
    "Longitude": 114.167,
    "Region": "",
    "ShortDescription": "hong kong",
    "Timezone": "Asia/Hong_Kong"
  },
  {
    "Abbreviation": "tok",
    "AreaID": 88,
    "Country": "JP",
    "Description": "tokyo",
    "Hostname": "tokyo",
    "Latitude": 35.6833,
    "Longitude": 139.766998,
    "Region": "",
    "ShortDescription": "tokyo",
    "Timezone": "Asia/Tokyo"
  },
  {
    "Abbreviation": "sng",
    "AreaID": 89,
    "Country": "SG",
    "Description": "singapore",
    "Hostname": "singapore",
    "Latitude": 1.29628,
    "Longitude": 103.843002,
    "Region": "",
    "ShortDescription": "singapore",
    "Timezone": "Asia/Singapore"
  },
  {
    "Abbreviation": "mnl",
    "AreaID": 90,
    "Country": "PH",
    "Description": "manila",
    "Hostname": "manila",
    "Latitude": 14.5922,
    "Longitude": 121.001999,
    "Region": "",
    "ShortDescription": "manila",
    "Timezone": "Asia/Manila"
  },
  {
    "Abbreviation": "mex",
    "AreaID": 91,
    "Country": "MX",
    "Description": "mexico city",
    "Hostname": "mexicocity",
    "Latitude": 19.433333,
    "Longitude": -99.133333,
    "Region": "",
    "ShortDescription": "mexico city",
    "Timezone": "America/Mexico_City"
  },
  {
    "Abbreviation": "rno",
    "AreaID": 92,
    "Country": "US",
    "Description": "reno / tahoe",
    "Hostname": "reno",
    "Latitude": 39.529701,
    "Longitude": -119.813004,
    "Region": "NV",
    "ShortDescription": "reno",
    "Timezone": "America/Los_Angeles"
  },
  {
    "Abbreviation": "brl",
    "AreaID": 93,
    "Country": "US",
    "Description": "vermont",
    "Hostname": "vermont",
    "Latitude": 44.461201,
    "Longitude": -73.193703,
    "Region": "VT",
    "ShortDescription": "vermont",
    "Timezone": "America/New_York"
  },
  {
    "Abbreviation": "eug",
    "AreaID": 94,
    "Country": "US",
    "Description": "eugene, OR",
    "Hostname": "eugene",
    "Latitude": 44.0522,
    "Longitude": -123.085999,
    "Region": "OR",
    "ShortDescription": "eugene",
    "Timezone": "America/Los_Angeles"
  },
  {
    "Abbreviation": "spk",
    "AreaID": 95,
    "Country": "US",
    "Description": "spokane / coeur d'alene",
    "Hostname": "spokane",
    "Latitude": 47.658901,
    "Longitude": -117.425003,
    "Region": "WA",
    "ShortDescription": "spokane",
    "Timezone": "America/Los_Angeles"
  },
  {
    "Abbreviation": "mod",
    "AreaID": 96,
    "Country": "US",
    "Description": "modesto, CA",
    "Hostname": "modesto",
    "Latitude": 37.639198,
    "Longitude": -120.996002,
    "Region": "CA",
    "ShortDescription": "modesto",
    "Timezone": "America/Los_Angeles"
  },
  {
    "Abbreviation": "stk",
    "AreaID": 97,
    "Country": "US",
    "Description": "stockton, CA",
    "Hostname": "stockton",
    "Latitude": 37.957802,
    "Longitude": -121.290001,
    "Region": "CA",
    "ShortDescription": "stockton",
    "Timezone": "America/Los_Angeles"
  },
  {
    "Abbreviation": "dsm",
    "AreaID": 98,
    "Country": "US",
    "Description": "des moines, IA",
    "Hostname": "desmoines",
    "Latitude": 41.600601,
    "Longitude": -93.608902,
    "Region": "IA",
    "ShortDescription": "des moines",
    "Timezone": "America/Chicago"
  },
  {
    "Abbreviation": "wic",
    "AreaID": 99,
    "Country": "US",
    "Description": "wichita, KS",
    "Hostname": "wichita",
    "Latitude": 37.6922,
    "Longitude": -97.337196,
    "Region": "KS",
    "ShortDescription": "wichita",
    "Timezone": "America/Chicago"
  },
  {
    "Abbreviation": "lit",
    "AreaID": 100,
    "Country": "US",
    "Description": "little rock",
    "Hostname": "littlerock",
    "Latitude": 34.746399,
    "Longitude": -92.289398,
    "Region": "AR",
    "ShortDescription": "little rock",
    "Timezone": "America/Chicago"
  },
  {
    "Abbreviation": "cae",
    "AreaID": 101,
    "Country": "US",
    "Description": "columbia, SC",
    "Hostname": "columbia",
    "Latitude": 34.000599,
    "Longitude": -81.035004,
    "Region": "SC",
    "ShortDescription": "columbia",
    "Timezone": "America/New_York"
  },
  {
    "Abbreviation": "mtb",
    "AreaID": 102,
    "Country": "US",
    "Description": "monterey bay",
    "Hostname": "monterey",
    "Latitude": 36.6003,
    "Longitude": -121.893997,
    "Region": "CA",
    "ShortDescription": "monterey",
    "Timezone": "America/Los_Angeles"
  },
  {
    "Abbreviation": "orc",
    "AreaID": 103,
    "Country": "US",
    "Description": "orange county, CA",
    "Hostname": "orangecounty",
    "Latitude": 33.731499,
    "Longitude": -117.862,
    "Region": "CA",
    "ShortDescription": "orange co",
    "Timezone": "America/Los_Angeles"
  },
  {
    "Abbreviation": "inl",
    "AreaID": 104,
    "Country": "US",
    "Description": "inland empire, CA",
    "Hostname": "inlandempire",
    "Latitude": 34.052799,
    "Longitude": -117.627998,
    "Region": "CA",
    "ShortDescription": "inland empire",
    "Timezone": "America/Los_Angeles"
  },
  {
    "Abbreviation": "osl",
    "AreaID": 105,
    "Country": "NO",
    "Description": "norway",
    "Hostname": "oslo",
    "Latitude": 59.919399,
    "Longitude": 10.7457,
    "Region": "",
    "ShortDescription": "norway",
    "Timezone": "Europe/Oslo"
  },
  {
    "Abbreviation": "sth",
    "AreaID": 106,
    "Country": "SE",
    "Description": "sweden",
    "Hostname": "stockholm",
    "Latitude": 59.337399,
    "Longitude": 18.0602,
    "Region": "",
    "ShortDescription": "sweden",
    "Timezone": "Europe/Stockholm"
  },
  {
    "Abbreviation": "cop",
    "AreaID": 107,
    "Country": "DK",
    "Description": "copenhagen",
    "Hostname": "copenhagen",
    "Latitude": 55.674999,
    "Longitude": 12.5687,
    "Region": "",
    "ShortDescription": "copenhagen",
    "Timezone": "Europe/Copenhagen"
  },
  {
    "Abbreviation": "ber",
    "AreaID": 108,
    "Country": "DE",
    "Description": "berlin",
    "Hostname": "berlin",
    "Latitude": 52.5233,
    "Longitude": 13.4127,
    "Region": "",
    "ShortDescription": "berlin",
    "Timezone": "Europe/Berlin"
  },
  {
    "Abbreviation": "bru",
    "AreaID": 109,
    "Country": "BE",
    "Description": "belgium",
    "Hostname": "brussels",
    "Latitude": 50.85,
    "Longitude": 4.35,
    "Region": "",
    "ShortDescription": "belgium",
    "Timezone": "Europe/Brussels"
  },
  {
    "Abbreviation": "mdd",
    "AreaID": 110,
    "Country": "ES",
    "Description": "madrid",
    "Hostname": "madrid",
    "Latitude": 40.400002,
    "Longitude": -3.6833,
    "Region": "",
    "ShortDescription": "madrid",
    "Timezone": "Europe/Madrid"
  },
  {
    "Abbreviation": "mxp",
    "AreaID": 111,
    "Country": "IT",
    "Description": "milan",
    "Hostname": "milan",
    "Latitude": 45.464001,
    "Longitude": 9.19157,
    "Region": "",
    "ShortDescription": "milan",
    "Timezone": "Europe/Rome"
  },
  {
    "Abbreviation": "zur",
    "AreaID": 112,
    "Country": "CH",
    "Description": "zurich",
    "Hostname": "zurich",
    "Latitude": 47.366699,
    "Longitude": 8.55,
    "Region": "",
    "ShortDescription": "zurich",
    "Timezone": "Europe/Zurich"
  },
  {
    "Abbreviation": "spo",
    "AreaID": 113,
    "Country": "BR",
    "Description": "sao paulo",
    "Hostname": "saopaulo",
    "Latitude": -23.566999,
    "Longitude": -46.632999,
    "Region": "",
    "ShortDescription": "sao paulo",
    "Timezone": "America/Sao_Paulo"
  },
  {
    "Abbreviation": "bue",
    "AreaID": 114,
    "Country": "AR",
    "Description": "buenos aires",
    "Hostname": "buenosaires",
    "Latitude": -34.6036,
    "Longitude": -58.381699,
    "Region": "",
    "ShortDescription": "buenos aires",
    "Timezone": "America/Cordoba"
  },
  {
    "Abbreviation": "blf",
    "AreaID": 115,
    "Country": "GB",
    "Description": "belfast",
    "Hostname": "belfast",
    "Latitude": 54.599998,
    "Longitude": -5.91667,
    "Region": "",
    "ShortDescription": "belfast",
    "Timezone": "Europe/London"
  },
  {
    "Abbreviation": "cym",
    "AreaID": 116,
    "Country": "GB",
    "Description": "cardiff / wales",
    "Hostname": "cardiff",
    "Latitude": 51.478001,
    "Longitude": -3.1771,
    "Region": "",
    "ShortDescription": "cardiff",
    "Timezone": "Europe/London"
  },
  {
    "Abbreviation": "brs",
    "AreaID": 117,
    "Country": "GB",
    "Description": "bristol",
    "Hostname": "bristol",
    "Latitude": 51.459999,
    "Longitude": -2.6,
    "Region": "",
    "ShortDescription": "bristol",
    "Timezone": "Europe/London"
  },
  {
    "Abbreviation": "liv",
    "AreaID": 118,
    "Country": "GB",
    "Description": "liverpool",
    "Hostname": "liverpool",
    "Latitude": 53.416698,
    "Longitude": -3,
    "Region": "",
    "ShortDescription": "liverpool",
    "Timezone": "Europe/London"
  },
  {
    "Abbreviation": "sel",
    "AreaID": 119,
    "Country": "KR",
    "Description": "seoul",
    "Hostname": "seoul",
    "Latitude": 37.583302,
    "Longitude": 127,
    "Region": "",
    "ShortDescription": "seoul",
    "Timezone": "Asia/Seoul"
  },
  {
    "Abbreviation": "osa",
    "AreaID": 120,
    "Country": "JP",
    "Description": "osaka-kobe-kyoto",
    "Hostname": "osaka",
    "Latitude": 34.660301,
    "Longitude": 135.522995,
    "Region": "",
    "ShortDescription": "osaka",
    "Timezone": "Asia/Tokyo"
  },
  {
    "Abbreviation": "rom",
    "AreaID": 121,
    "Country": "IT",
    "Description": "rome",
    "Hostname": "rome",
    "Latitude": 41.900002,
    "Longitude": 12.5,
    "Region": "",
    "ShortDescription": "rome",
    "Timezone": "Europe/Rome"
  },
  {
    "Abbreviation": "vie",
    "AreaID": 122,
    "Country": "AT",
    "Description": "vienna",
    "Hostname": "vienna",
    "Latitude": 48.211899,
    "Longitude": 16.359301,
    "Region": "",
    "ShortDescription": "vienna",
    "Timezone": "Europe/Vienna"
  },
  {
    "Abbreviation": "lds",
    "AreaID": 123,
    "Country": "GB",
    "Description": "leeds",
    "Hostname": "leeds",
    "Latitude": 53.810001,
    "Longitude": -1.55,
    "Region": "",
    "ShortDescription": "leeds",
    "Timezone": "Europe/London"
  },
  {
    "Abbreviation": "fmy",
    "AreaID": 125,
    "Country": "US",
    "Description": "ft myers / SW florida",
    "Hostname": "fortmyers",
    "Latitude": 26.629999,
    "Longitude": -81.849998,
    "Region": "FL",
    "ShortDescription": "fort myers",
    "SubAreas": [
      {
        "Abbreviation": "lee",
        "Description": "lee county",
        "ShortDescription": "lee county",
        "SubAreaID": 1
      },
      {
        "Abbreviation": "chl",
        "Description": "charlotte county",
        "ShortDescription": "charlotte co",
        "SubAreaID": 2
      },
      {
        "Abbreviation": "col",
        "Description": "collier county",
        "ShortDescription": "collier co",
        "SubAreaID": 3
      }
    ],
    "Timezone": "America/New_York"
  },
  {
    "Abbreviation": "rcs",
    "AreaID": 126,
    "Country": "US",
    "Description": "rochester, NY",
    "Hostname": "rochester",
    "Latitude": 43.154701,
    "Longitude": -77.615799,
    "Region": "NY",
    "ShortDescription": "rochester, NY",
    "Timezone": "America/New_York"
  },
  {
    "Abbreviation": "bhm",
    "AreaID": 127,
    "Country": "US",
    "Description": "birmingham, AL",
    "Hostname": "bham",
    "Latitude": 33.520599,
    "Longitude": -86.802498,
    "Region": "AL",
    "ShortDescription": "birmingham, AL",
    "Timezone": "America/Chicago"
  },
  {
    "Abbreviation": "chs",
    "AreaID": 128,
    "Country": "US",
    "Description": "charleston, SC",
    "Hostname": "charleston",
    "Latitude": 32.776402,
    "Longitude": -79.931099,
    "Region": "SC",
    "ShortDescription": "charleston",
    "Timezone": "America/New_York"
  },
  {
    "Abbreviation": "grr",
    "AreaID": 129,
    "Country": "US",
    "Description": "grand rapids, MI",
    "Hostname": "grandrapids",
    "Latitude": 42.963299,
    "Longitude": -85.668098,
    "Region": "MI",
    "ShortDescription": "grand rapids",
    "Timezone": "America/New_York"
  },
  {
    "Abbreviation": "syr",
    "AreaID": 130,
    "Country": "US",
    "Description": "syracuse, NY",
    "Hostname": "syracuse",
    "Latitude": 43.0481,
    "Longitude": -76.147797,
    "Region": "NY",
    "ShortDescription": "syracuse",
    "Timezone": "America/New_York"
  },
  {
    "Abbreviation": "day",
    "AreaID": 131,
    "Country": "US",
    "Description": "dayton / springfield",
    "Hostname": "dayton",
    "Latitude": 39.7589,
    "Longitude": -84.191704,
    "Region": "OH",
    "ShortDescription": "dayton",
    "Timezone": "America/New_York"
  },
  {
    "Abbreviation": "elp",
    "AreaID": 132,
    "Country": "US",
    "Description": "el paso, TX",
    "Hostname": "elpaso",
    "Latitude": 31.7586,
    "Longitude": -106.486,
    "Region": "TX",
    "ShortDescription": "el paso",
    "Timezone": "America/Denver"
  },
  {
    "Abbreviation": "lex",
    "AreaID": 133,
    "Country": "US",
    "Description": "lexington, KY",
    "Hostname": "lexington",
    "Latitude": 37.988701,
    "Longitude": -84.477699,
    "Region": "KY",
    "ShortDescription": "lexington",
    "Timezone": "America/New_York"
  },
  {
    "Abbreviation": "jan",
    "AreaID": 134,
    "Country": "US",
    "Description": "jackson, MS",
    "Hostname": "jackson",
    "Latitude": 32.298599,
    "Longitude": -90.1847,
    "Region": "MS",
    "ShortDescription": "jackson, MS",
    "Timezone": "America/Chicago"
  },
  {
    "Abbreviation": "sha",
    "AreaID": 135,
    "Country": "CN",
    "Description": "shanghai",
    "Hostname": "shanghai",
    "Latitude": 31.233299,
    "Longitude": 121.467003,
    "Region": "",
    "ShortDescription": "shanghai",
    "Timezone": "Asia/Chongqing"
  },
  {
    "Abbreviation": "cpt",
    "AreaID": 136,
    "Country": "ZA",
    "Description": "cape town",
    "Hostname": "capetown",
    "Latitude": -33.9767,
    "Longitude": 18.4244,
    "Region": "",
    "ShortDescription": "cape town",
    "Timezone": "Africa/Johannesburg"
  },
  {
    "Abbreviation": "mos",
    "AreaID": 137,
    "Country": "RU",
    "Description": "moscow",
    "Hostname": "moscow",
    "Latitude": 55.75,
    "Longitude": 37.583302,
    "Region": "",
    "ShortDescription": "moscow",
    "Timezone": "Europe/Moscow"
  },
  {
    "Abbreviation": "prg",
    "AreaID": 138,
    "Country": "CZ",
    "Description": "prague",
    "Hostname": "prague",
    "Latitude": 50.0783,
    "Longitude": 14.4141,
    "Region": "",
    "ShortDescription": "prague",
    "Timezone": "Europe/Prague"
  },
  {
    "Abbreviation": "rio",
    "AreaID": 139,
    "Country": "BR",
    "Description": "rio de janeiro",
    "Hostname": "rio",
    "Latitude": -22.9083,
    "Longitude": -43.243599,
    "Region": "",
    "ShortDescription": "rio de janeiro",
    "Timezone": "America/Sao_Paulo"
  },
  {
    "Abbreviation": "ham",
    "AreaID": 140,
    "Country": "DE",
    "Description": "hamburg",
    "Hostname": "hamburg",
    "Latitude": 53.5686,
    "Longitude": 10.0386,
    "Region": "",
    "ShortDescription": "hamburg",
    "Timezone": "Europe/Berlin"
  },
  {
    "Abbreviation": "fra",
    "AreaID": 141,
    "Country": "DE",
    "Description": "frankfurt",
    "Hostname": "frankfurt",
    "Latitude": 50.116699,
    "Longitude": 8.68333,
    "Region": "",
    "ShortDescription": "frankfurt",
    "Timezone": "Europe/Berlin"
  },
  {
    "Abbreviation": "muc",
    "AreaID": 142,
    "Country": "DE",
    "Description": "munich",
    "Hostname": "munich",
    "Latitude": 48.133301,
    "Longitude": 11.5667,
    "Region": "",
    "ShortDescription": "munich",
    "Timezone": "Europe/Berlin"
  },
  {
    "Abbreviation": "stp",
    "AreaID": 143,
    "Country": "RU",
    "Description": "st petersburg, RU",
    "Hostname": "stpetersburg",
    "Latitude": 59.922001,
    "Longitude": 30.3223,
    "Region": "",
    "ShortDescription": "st petersburg",
    "Timezone": "Europe/Moscow"
  },
  {
    "Abbreviation": "ath",
    "AreaID": 144,
    "Country": "GR",
    "Description": "greece",
    "Hostname": "athens",
    "Latitude": 37.980999,
    "Longitude": 23.7169,
    "Region": "",
    "ShortDescription": "greece",
    "Timezone": "Europe/Athens"
  },
  {
    "Abbreviation": "hel",
    "AreaID": 145,
    "Country": "FI",
    "Description": "finland",
    "Hostname": "helsinki",
    "Latitude": 60.182499,
    "Longitude": 24.947201,
    "Region": "",
    "ShortDescription": "finland",
    "Timezone": "Europe/Helsinki"
  },
  {
    "Abbreviation": "gva",
    "AreaID": 146,
    "Country": "CH",
    "Description": "geneva",
    "Hostname": "geneva",
    "Latitude": 46.200001,
    "Longitude": 6.15,
    "Region": "",
    "ShortDescription": "geneva",
    "Timezone": "Europe/Zurich"
  },
  {
    "Abbreviation": "waw",
    "AreaID": 147,
    "Country": "PL",
    "Description": "poland",
    "Hostname": "warsaw",
    "Latitude": 52.232399,
    "Longitude": 21.001699,
    "Region": "",
    "ShortDescription": "poland",
    "Timezone": "Europe/Warsaw"
  },
  {
    "Abbreviation": "ist",
    "AreaID": 148,
    "Country": "TR",
    "Description": "turkey",
    "Hostname": "istanbul",
    "Latitude": 41.042099,
    "Longitude": 29.009399,
    "Region": "",
    "ShortDescription": "turkey",
    "Timezone": "Europe/Istanbul"
  },
  {
    "Abbreviation": "mrs",
    "AreaID": 149,
    "Country": "FR",
    "Description": "marseille",
    "Hostname": "marseilles",
    "Latitude": 43.297501,
    "Longitude": 5.3772,
    "Region": "",
    "ShortDescription": "marseille",
    "Timezone": "Europe/Paris"
  },
  {
    "Abbreviation": "lys",
    "AreaID": 150,
    "Country": "FR",
    "Description": "lyon",
    "Hostname": "lyon",
    "Latitude": 45.766899,
    "Longitude": 4.8342,
    "Region": "",
    "ShortDescription": "lyon",
    "Timezone": "Europe/Paris"
  },
  {
    "Abbreviation": "nap",
    "AreaID": 151,
    "Country": "IT",
    "Description": "napoli / campania",
    "Hostname": "naples",
    "Latitude": 40.846001,
    "Longitude": 14.251,
    "Region": "",
    "ShortDescription": "napoli",
    "Timezone": "Europe/Rome"
  },
  {
    "Abbreviation": "flr",
    "AreaID": 152,
    "Country": "IT",
    "Description": "florence / tuscany",
    "Hostname": "florence",
    "Latitude": 43.771702,
    "Longitude": 11.2536,
    "Region": "",
    "ShortDescription": "florence",
    "Timezone": "Europe/Rome"
  },
  {
    "Abbreviation": "bud",
    "AreaID": 153,
    "Country": "HU",
    "Description": "budapest",
    "Hostname": "budapest",
    "Latitude": 47.5,
    "Longitude": 19.049999,
    "Region": "",
    "ShortDescription": "budapest",
    "Timezone": "Europe/Budapest"
  },
  {
    "Abbreviation": "pek",
    "AreaID": 154,
    "Country": "CN",
    "Description": "beijing",
    "Hostname": "beijing",
    "Latitude": 39.901299,
    "Longitude": 116.389,
    "Region": "",
    "ShortDescription": "beijing",
    "Timezone": "Asia/Chongqing"
  },
  {
    "Abbreviation": "twd",
    "AreaID": 155,
    "Country": "TW",
    "Description": "taiwan",
    "Hostname": "taipei",
    "Latitude": 23.766701,
    "Longitude": 121,
    "Region": "",
    "ShortDescription": "taiwan",
    "Timezone": "Asia/Taipei"
  },
  {
    "Abbreviation": "bkk",
    "AreaID": 156,
    "Country": "TH",
    "Description": "thailand",
    "Hostname": "bangkok",
    "Latitude": 13.9202,
    "Longitude": 101.016998,
    "Region": "",
    "ShortDescription": "thailand",
    "Timezone": "Asia/Bangkok"
  },
  {
    "Abbreviation": "jkt",
    "AreaID": 157,
    "Country": "ID",
    "Description": "indonesia",
    "Hostname": "jakarta",
    "Latitude": -6.267,
    "Longitude": 106.800003,
    "Region": "",
    "ShortDescription": "indonesia",
    "Timezone": "Asia/Jakarta"
  },
  {
    "Abbreviation": "scl",
    "AreaID": 158,
    "Country": "CL",
    "Description": "chile",
    "Hostname": "santiago",
    "Latitude": -33.462399,
    "Longitude": -70.640701,
    "Region": "",
    "ShortDescription": "chile",
    "Timezone": "America/Santiago"
  },
  {
    "Abbreviation": "lim",
    "AreaID": 159,
    "Country": "PE",
    "Description": "peru",
    "Hostname": "lima",
    "Latitude": -12.1038,
    "Longitude": -77.058098,
    "Region": "",
    "ShortDescription": "peru",
    "Timezone": "America/Lima"
  },
  {
    "Abbreviation": "tlv",
    "AreaID": 160,
    "Country": "IL",
    "Description": "tel aviv",
    "Hostname": "telaviv",
    "Latitude": 32.083302,
    "Longitude": 34.799999,
    "Region": "",
    "ShortDescription": "tel aviv",
    "Timezone": "Asia/Jerusalem"
  },
  {
    "Abbreviation": "jrs",
    "AreaID": 161,
    "Country": "IL",
    "Description": "jerusalem",
    "Hostname": "jerusalem",
    "Latitude": 31.7871,
    "Longitude": 35.2048,
    "Region": "",
    "ShortDescription": "jerusalem",
    "Timezone": "Asia/Jerusalem"
  },
  {
    "Abbreviation": "cai",
    "AreaID": 162,
    "Country": "EG",
    "Description": "egypt",
    "Hostname": "cairo",
    "Latitude": 30.0667,
    "Longitude": 31.2479,
    "Region": "",
    "ShortDescription": "egypt",
    "Timezone": "Africa/Cairo"
  },
  {
    "Abbreviation": "ncl",
    "AreaID": 163,
    "Country": "GB",
    "Description": "newcastle / NE england",
    "Hostname": "newcastle",
    "Latitude": 54.9776,
    "Longitude": -1.61362,
    "Region": "",
    "ShortDescription": "newcastle, UK",
    "Timezone": "Europe/London"
  },
  {
    "Abbreviation": "mad",
    "AreaID": 165,
    "Country": "US",
    "Description": "madison, WI",
    "Hostname": "madison",
    "Latitude": 43.073101,
    "Longitude": -89.4011,
    "Region": "WI",
    "ShortDescription": "madison",
    "Timezone": "America/Chicago"
  },
  {
    "Abbreviation": "hrs",
    "AreaID": 166,
    "Country": "US",
    "Description": "harrisburg, PA",
    "Hostname": "harrisburg",
    "Latitude": 40.273602,
    "Longitude": -76.884697,
    "Region": "PA",
    "ShortDescription": "harrisburg",
    "Timezone": "America/New_York"
  },
  {
    "Abbreviation": "alt",
    "AreaID": 167,
    "Country": "US",
    "Description": "lehigh valley",
    "Hostname": "allentown",
    "Latitude": 40.599998,
    "Longitude": -75.5,
    "Region": "PA",
    "ShortDescription": "allentown",
    "Timezone": "America/New_York"
  },
  {
    "Abbreviation": "hvn",
    "AreaID": 168,
    "Country": "US",
    "Description": "new haven, CT",
    "Hostname": "newhaven",
    "Latitude": 41.308102,
    "Longitude": -72.928596,
    "Region": "CT",
    "ShortDescription": "new haven",
    "Timezone": "America/New_York"
  },
  {
    "Abbreviation": "mne",
    "AreaID": 169,
    "Country": "US",
    "Description": "maine",
    "Hostname": "maine",
    "Latitude": 44.693199,
    "Longitude": -69.334602,
    "Region": "ME",
    "ShortDescription": "maine",
    "Timezone": "America/New_York"
  },
  {
    "Abbreviation": "njy",
    "AreaID": 170,
    "Country": "US",
    "Description": "north jersey",
    "Hostname": "newjersey",
    "Latitude": 40.91,
    "Longitude": -74.172997,
    "Region": "NJ",
    "ShortDescription": "north jersey",
    "Timezone": "America/New_York"
  },
  {
    "Abbreviation": "ash",
    "AreaID": 171,
    "Country": "US",
    "Description": "asheville, NC",
    "Hostname": "asheville",
    "Latitude": 35.6008,
    "Longitude": -82.554199,
    "Region": "NC",
    "ShortDescription": "asheville",
    "Timezone": "America/New_York"
  },
  {
    "Abbreviation": "aaa",
    "AreaID": 172,
    "Country": "US",
    "Description": "ann arbor, MI",
    "Hostname": "annarbor",
    "Latitude": 42.270802,
    "Longitude": -83.726402,
    "Region": "MI",
    "ShortDescription": "ann arbor",
    "Timezone": "America/New_York"
  },
  {
    "Abbreviation": "wma",
    "AreaID": 173,
    "Country": "US",
    "Description": "western massachusetts",
    "Hostname": "westernmass",
    "Latitude": 42.349998,
    "Longitude": -73,
    "Region": "MA",
    "ShortDescription": "western mass",
    "Timezone": "America/New_York"
  },
  {
    "Abbreviation": "hfx",
    "AreaID": 174,
    "Country": "CA",
    "Description": "halifax, NS",
    "Hostname": "halifax",
    "Latitude": 44.63739,
    "Longitude": -63.588867,
    "Region": "NS",
    "ShortDescription": "halifax",
    "Timezone": "America/Halifax"
  },
  {
    "Abbreviation": "qbc",
    "AreaID": 175,
    "Country": "CA",
    "Description": "quebec city",
    "Hostname": "quebec",
    "Latitude": 46.890202,
    "Longitude": -71.218903,
    "Region": "QC",
    "ShortDescription": "quebec",
    "Timezone": "America/Toronto"
  },
  {
    "Abbreviation": "skt",
    "AreaID": 176,
    "Country": "CA",
    "Description": "saskatoon, SK",
    "Hostname": "saskatoon",
    "Latitude": 52.136902,
    "Longitude": -106.641998,
    "Region": "SK",
    "ShortDescription": "saskatoon",
    "Timezone": "America/Regina"
  },
  {
    "Abbreviation": "vic",
    "AreaID": 177,
    "Country": "CA",
    "Description": "victoria, BC",
    "Hostname": "victoria",
    "Latitude": 48.4328,
    "Longitude": -123.334999,
    "Region": "BC",
    "ShortDescription": "victoria, BC",
    "Timezone": "America/Vancouver"
  },
  {
    "Abbreviation": "ccs",
    "AreaID": 178,
    "Country": "VE",
    "Description": "venezuela",
    "Hostname": "caracas",
    "Latitude": 10.4122,
    "Longitude": -66.882004,
    "Region": "",
    "ShortDescription": "venezuela",
    "Timezone": "America/Caracas"
  },
  {
    "Abbreviation": "cri",
    "AreaID": 179,
    "Country": "CR",
    "Description": "costa rica",
    "Hostname": "costarica",
    "Latitude": 9.9247,
    "Longitude": -84.078003,
    "Region": "",
    "ShortDescription": "costa rica",
    "Timezone": "America/Costa_Rica"
  },
  {
    "Abbreviation": "pri",
    "AreaID": 180,
    "Country": "PR",
    "Description": "puerto rico",
    "Hostname": "puertorico",
    "Latitude": 18.261299,
    "Longitude": -66.435997,
    "Region": "PR",
    "ShortDescription": "puerto rico",
    "Timezone": "America/Puerto_Rico"
  },
  {
    "Abbreviation": "tij",
    "AreaID": 181,
    "Country": "MX",
    "Description": "tijuana, MX",
    "Hostname": "tijuana",
    "Latitude": 32.5308,
    "Longitude": -117.019997,
    "Region": "",
    "ShortDescription": "tijuana",
    "Timezone": "America/Tijuana"
  },
  {
    "Abbreviation": "che",
    "AreaID": 182,
    "Country": "IN",
    "Description": "chennai (madras)",
    "Hostname": "chennai",
    "Latitude": 13.081,
    "Longitude": 80.274002,
    "Region": "",
    "ShortDescription": "chennai",
    "Timezone": "Asia/Calcutta"
  },
  {
    "Abbreviation": "hyd",
    "AreaID": 183,
    "Country": "IN",
    "Description": "hyderabad",
    "Hostname": "hyderabad",
    "Latitude": 17.366699,
    "Longitude": 78.466698,
    "Region": "",
    "ShortDescription": "hyderabad",
    "Timezone": "Asia/Calcutta"
  },
  {
    "Abbreviation": "kol",
    "AreaID": 184,
    "Country": "IN",
    "Description": "kolkata (calcutta)",
    "Hostname": "kolkata",
    "Latitude": 22.5697,
    "Longitude": 88.369698,
    "Region": "",
    "ShortDescription": "kolkata",
    "Timezone": "Asia/Calcutta"
  },
  {
    "Abbreviation": "jnb",
    "AreaID": 185,
    "Country": "ZA",
    "Description": "johannesburg",
    "Hostname": "johannesburg",
    "Latitude": -26.194901,
    "Longitude": 28.0371,
    "Region": "",
    "ShortDescription": "johannesburg",
    "Timezone": "Africa/Johannesburg"
  },
  {
    "Abbreviation": "tal",
    "AreaID": 186,
    "Country": "US",
    "Description": "tallahassee",
    "Hostname": "tallahassee",
    "Latitude": 30.438101,
    "Longitude": -84.2808,
    "Region": "FL",
    "ShortDescription": "tallahassee",
    "Timezone": "America/New_York"
  },
  {
    "Abbreviation": "chc",
    "AreaID": 187,
    "Country": "US",
    "Description": "chico, CA",
    "Hostname": "chico",
    "Latitude": 39.7286,
    "Longitude": -121.835999,
    "Region": "CA",
    "ShortDescription": "chico",
    "Timezone": "America/Los_Angeles"
  },
  {
    "Abbreviation": "rdd",
    "AreaID": 188,
    "Country": "US",
    "Description": "redding, CA",
    "Hostname": "redding",
    "Latitude": 40.5867,
    "Longitude": -122.390999,
    "Region": "CA",
    "ShortDescription": "redding",
    "Timezone": "America/Los_Angeles"
  },
  {
    "Abbreviation": "hmb",
    "AreaID": 189,
    "Country": "US",
    "Description": "humboldt county",
    "Hostname": "humboldt",
    "Latitude": 40.747398,
    "Longitude": -123.987999,
    "Region": "CA",
    "ShortDescription": "humboldt",
    "Timezone": "America/Los_Angeles"
  },
  {
    "Abbreviation": "chm",
    "AreaID": 190,
    "Country": "US",
    "Description": "champaign urbana",
    "Hostname": "chambana",
    "Latitude": 40.110001,
    "Longitude": -88.25,
    "Region": "IL",
    "ShortDescription": "chambana",
    "Timezone": "America/Chicago"
  },
  {
    "Abbreviation": "slo",
    "AreaID": 191,
    "Country": "US",
    "Description": "san luis obispo",
    "Hostname": "slo",
    "Latitude": 35.282799,
    "Longitude": -120.658997,
    "Region": "CA",
    "ShortDescription": "san luis obispo",
    "Timezone": "America/Los_Angeles"
  },
  {
    "Abbreviation": "mnt",
    "AreaID": 192,
    "Country": "US",
    "Description": "eastern montana",
    "Hostname": "montana",
    "Latitude": 47.1,
    "Longitude": -104.7,
    "Region": "MT",
    "ShortDescription": "eastern montana",
    "Timezone": "America/Denver"
  },
  {
    "Abbreviation": "dlw",
    "AreaID": 193,
    "Country": "US",
    "Description": "delaware",
    "Hostname": "delaware",
    "Latitude": 39.145699,
    "Longitude": -75.483498,
    "Region": "DE",
    "ShortDescription": "delaware",
    "Timezone": "America/New_York"
  },
  {
    "Abbreviation": "wva",
    "AreaID": 194,
    "Country": "US",
    "Description": "west virginia (old)",
    "Hostname": "wv",
    "Latitude": 38.709999,
    "Longitude": -80.660004,
    "Region": "WV",
    "ShortDescription": "west virginia",
    "Timezone": "America/New_York"
  },
  {
    "Abbreviation": "sdk",
    "AreaID": 195,
    "Country": "US",
    "Description": "south dakota",
    "Hostname": "sd",
    "Latitude": 44.296101,
    "Longitude": -99.236702,
    "Region": "SD",
    "ShortDescription": "south dakota",
    "Timezone": "America/Chicago"
  },
  {
    "Abbreviation": "ndk",
    "AreaID": 196,
    "Country": "US",
    "Description": "north dakota",
    "Hostname": "nd",
    "Latitude": 47.5,
    "Longitude": -100.5,
    "Region": "ND",
    "ShortDescription": "north dakota",
    "Timezone": "America/Chicago"
  },
  {
    "Abbreviation": "wyo",
    "AreaID": 197,
    "Country": "US",
    "Description": "wyoming",
    "Hostname": "wyoming",
    "Latitude": 43.004002,
    "Longitude": -108.153999,
    "Region": "WY",
    "ShortDescription": "wyoming",
    "Timezone": "America/Denver"
  },
  {
    "Abbreviation": "nhm",
    "AreaID": 198,
    "Country": "US",
    "Description": "new hampshire",
    "Hostname": "nh",
    "Latitude": 43.654099,
    "Longitude": -71.564201,
    "Region": "NH",
    "ShortDescription": "new hampshire",
    "Timezone": "America/New_York"
  },
  {
    "Abbreviation": "btr",
    "AreaID": 199,
    "Country": "US",
    "Description": "baton rouge",
    "Hostname": "batonrouge",
    "Latitude": 30.458099,
    "Longitude": -91.140198,
    "Region": "LA",
    "ShortDescription": "baton rouge",
    "Timezone": "America/Chicago"
  },
  {
    "Abbreviation": "mob",
    "AreaID": 200,
    "Country": "US",
    "Description": "mobile, AL",
    "Hostname": "mobile",
    "Latitude": 30.694201,
    "Longitude": -88.043098,
    "Region": "AL",
    "ShortDescription": "mobile, AL",
    "Timezone": "America/Chicago"
  },
  {
    "Abbreviation": "ith",
    "AreaID": 201,
    "Country": "US",
    "Description": "ithaca, NY",
    "Hostname": "ithaca",
    "Latitude": 42.440601,
    "Longitude": -76.496902,
    "Region": "NY",
    "ShortDescription": "ithaca",
    "Timezone": "America/New_York"
  },
  {
    "Abbreviation": "knx",
    "AreaID": 202,
    "Country": "US",
    "Description": "knoxville, TN",
    "Hostname": "knoxville",
    "Latitude": 35.960602,
    "Longitude": -83.920799,
    "Region": "TN",
    "ShortDescription": "knoxville",
    "Timezone": "America/New_York"
  },
  {
    "Abbreviation": "pns",
    "AreaID": 203,
    "Country": "US",
    "Description": "pensacola, FL",
    "Hostname": "pensacola",
    "Latitude": 30.421101,
    "Longitude": -87.216904,
    "Region": "FL",
    "ShortDescription": "pensacola",
    "Timezone": "America/Chicago"
  },
  {
    "Abbreviation": "tol",
    "AreaID": 204,
    "Country": "US",
    "Description": "toledo, OH",
    "Hostname": "toledo",
    "Latitude": 41.663898,
    "Longitude": -83.555298,
    "Region": "OH",
    "ShortDescription": "toledo",
    "Timezone": "America/New_York"
  },
  {
    "Abbreviation": "sav",
    "AreaID": 205,
    "Country": "US",
    "Description": "savannah / hinesville",
    "Hostname": "savannah",
    "Latitude": 32.050701,
    "Longitude": -81.103798,
    "Region": "GA",
    "ShortDescription": "savannah",
    "Timezone": "America/New_York"
  },
  {
    "Abbreviation": "shv",
    "AreaID": 206,
    "Country": "US",
    "Description": "shreveport, LA",
    "Hostname": "shreveport",
    "Latitude": 32.468102,
    "Longitude": -93.771103,
    "Region": "LA",
    "ShortDescription": "shreveport",
    "Timezone": "America/Chicago"
  },
  {
    "Abbreviation": "mgm",
    "AreaID": 207,
    "Country": "US",
    "Description": "montgomery, AL",
    "Hostname": "montgomery",
    "Latitude": 32.366699,
    "Longitude": -86.300003,
    "Region": "AL",
    "ShortDescription": "montgomery",
    "Timezone": "America/Chicago"
  },
  {
    "Abbreviation": "oxr",
    "AreaID": 208,
    "Country": "US",
    "Description": "ventura county",
    "Hostname": "ventura",
    "Latitude": 34.277,
    "Longitude": -119.044998,
    "Region": "CA",
    "ShortDescription": "ventura",
    "Timezone": "America/Los_Angeles"
  },
  {
    "Abbreviation": "psp",
    "AreaID": 209,
    "Country": "US",
    "Description": "palm springs, CA",
    "Hostname": "palmsprings",
    "Latitude": 33.830299,
    "Longitude": -116.543999,
    "Region": "CA",
    "ShortDescription": "palm springs",
    "Timezone": "America/Los_Angeles"
  },
  {
    "Abbreviation": "cos",
    "AreaID": 210,
    "Country": "US",
    "Description": "colorado springs",
    "Hostname": "cosprings",
    "Latitude": 38.8339,
    "Longitude": -104.820999,
    "Region": "CO",
    "ShortDescription": "colo springs",
    "Timezone": "America/Denver"
  },
  {
    "Abbreviation": "oxf",
    "AreaID": 211,
    "Country": "GB",
    "Description": "oxford, UK",
    "Hostname": "oxford",
    "Latitude": 51.751099,
    "Longitude": -1.25583,
    "Region": "",
    "ShortDescription": "oxford",
    "Timezone": "Europe/London"
  },
  {
    "Abbreviation": "lan",
    "AreaID": 212,
    "Country": "US",
    "Description": "lansing, MI",
    "Hostname": "lansing",
    "Latitude": 42.732498,
    "Longitude": -84.555603,
    "Region": "MI",
    "ShortDescription": "lansing",
    "Timezone": "America/New_York"
  },
  {
    "Abbreviation": "hml",
    "AreaID": 213,
    "Country": "CA",
    "Description": "hamilton-burlington",
    "Hostname": "hamilton",
    "Latitude": 43.243999,
    "Longitude": -79.869003,
    "Region": "ON",
    "ShortDescription": "hamilton",
    "Timezone": "America/Toronto"
  },
  {
    "Abbreviation": "kch",
    "AreaID": 214,
    "Country": "CA",
    "Description": "kitchener-waterloo-cambridge",
    "Hostname": "kitchener",
    "Latitude": 43.452801,
    "Longitude": -80.490799,
    "Region": "ON",
    "ShortDescription": "kitchener",
    "Timezone": "America/Toronto"
  },
  {
    "Abbreviation": "uae",
    "AreaID": 215,
    "Country": "AE",
    "Description": "united arab emirates",
    "Hostname": "dubai",
    "Latitude": 25.269699,
    "Longitude": 55.309502,
    "Region": "",
    "ShortDescription": "emirates",
    "Timezone": "Asia/Dubai"
  },
  {
    "Abbreviation": "mfr",
    "AreaID": 216,
    "Country": "US",
    "Description": "medford-ashland",
    "Hostname": "medford",
    "Latitude": 42.326698,
    "Longitude": -122.874001,
    "Region": "OR",
    "ShortDescription": "medford",
    "Timezone": "America/Los_Angeles"
  },
  {
    "Abbreviation": "bli",
    "AreaID": 217,
    "Country": "US",
    "Description": "bellingham, WA",
    "Hostname": "bellingham",
    "Latitude": 48.759701,
    "Longitude": -122.487,
    "Region": "WA",
    "ShortDescription": "bellingham",
    "Timezone": "America/Los_Angeles"
  },
  {
    "Abbreviation": "saf",
    "AreaID": 218,
    "Country": "US",
    "Description": "santa fe / taos",
    "Hostname": "santafe",
    "Latitude": 35.686901,
    "Longitude": -105.936996,
    "Region": "NM",
    "ShortDescription": "santa fe",
    "Timezone": "America/Denver"
  },
  {
    "Abbreviation": "gnv",
    "AreaID": 219,
    "Country": "US",
    "Description": "gainesville, FL",
    "Hostname": "gainesville",
    "Latitude": 29.6514,
    "Longitude": -82.324997,
    "Region": "FL",
    "ShortDescription": "gainesville",
    "Timezone": "America/New_York"
  },
  {
    "Abbreviation": "cht",
    "AreaID": 220,
    "Country": "US",
    "Description": "chattanooga, TN",
    "Hostname": "chattanooga",
    "Latitude": 35.045601,
    "Longitude": -85.3097,
    "Region": "TN",
    "ShortDescription": "chattanooga",
    "Timezone": "America/New_York"
  },
  {
    "Abbreviation": "sgf",
    "AreaID": 221,
    "Country": "US",
    "Description": "springfield, MO",
    "Hostname": "springfield",
    "Latitude": 37.215302,
    "Longitude": -93.298103,
    "Region": "MO",
    "ShortDescription": "springfield",
    "Timezone": "America/Chicago"
  },
  {
    "Abbreviation": "cou",
    "AreaID": 222,
    "Country": "US",
    "Description": "columbia / jeff city",
    "Hostname": "columbiamo",
    "Latitude": 38.951698,
    "Longitude": -92.3339,
    "Region": "MO",
    "ShortDescription": "columbia, MO",
    "Timezone": "America/Chicago"
  },
  {
    "Abbreviation": "rfd",
    "AreaID": 223,
    "Country": "US",
    "Description": "rockford, IL",
    "Hostname": "rockford",
    "Latitude": 42.271099,
    "Longitude": -89.093903,
    "Region": "IL",
    "ShortDescription": "rockford",
    "Timezone": "America/Chicago"
  },
  {
    "Abbreviation": "pia",
    "AreaID": 224,
    "Country": "US",
    "Description": "peoria, IL",
    "Hostname": "peoria",
    "Latitude": 40.6936,
    "Longitude": -89.588898,
    "Region": "IL",
    "ShortDescription": "peoria",
    "Timezone": "America/Chicago"
  },
  {
    "Abbreviation": "spi",
    "AreaID": 225,
    "Country": "US",
    "Description": "springfield, IL",
    "Hostname": "springfieldil",
    "Latitude": 39.801701,
    "Longitude": -89.6436,
    "Region": "IL",
    "ShortDescription": "springfield, IL",
    "Timezone": "America/Chicago"
  },
  {
    "Abbreviation": "fwa",
    "AreaID": 226,
    "Country": "US",
    "Description": "fort wayne, IN",
    "Hostname": "fortwayne",
    "Latitude": 41.1306,
    "Longitude": -85.128899,
    "Region": "IN",
    "ShortDescription": "fort wayne",
    "Timezone": "America/New_York"
  },
  {
    "Abbreviation": "evv",
    "AreaID": 227,
    "Country": "US",
    "Description": "evansville, IN",
    "Hostname": "evansville",
    "Latitude": 37.974701,
    "Longitude": -87.555801,
    "Region": "IN",
    "ShortDescription": "evansville",
    "Timezone": "America/Chicago"
  },
  {
    "Abbreviation": "sbn",
    "AreaID": 228,
    "Country": "US",
    "Description": "south bend / michiana",
    "Hostname": "southbend",
    "Latitude": 41.6833,
    "Longitude": -86.25,
    "Region": "IN",
    "ShortDescription": "south bend",
    "Timezone": "America/New_York"
  },
  {
    "Abbreviation": "bmg",
    "AreaID": 229,
    "Country": "US",
    "Description": "bloomington, IN",
    "Hostname": "bloomington",
    "Latitude": 39.165298,
    "Longitude": -86.526398,
    "Region": "IN",
    "ShortDescription": "bloomington, IN",
    "Timezone": "America/New_York"
  },
  {
    "Abbreviation": "gpt",
    "AreaID": 230,
    "Country": "US",
    "Description": "gulfport / biloxi",
    "Hostname": "gulfport",
    "Latitude": 30.367201,
    "Longitude": -89.092796,
    "Region": "MS",
    "ShortDescription": "gulfport",
    "Timezone": "America/Chicago"
  },
  {
    "Abbreviation": "hsv",
    "AreaID": 231,
    "Country": "US",
    "Description": "huntsville / decatur",
    "Hostname": "huntsville",
    "Latitude": 34.730301,
    "Longitude": -86.586098,
    "Region": "AL",
    "ShortDescription": "huntsville",
    "Timezone": "America/Chicago"
  },
  {
    "Abbreviation": "sle",
    "AreaID": 232,
    "Country": "US",
    "Description": "salem, OR",
    "Hostname": "salem",
    "Latitude": 44.9431,
    "Longitude": -123.033997,
    "Region": "OR",
    "ShortDescription": "salem",
    "Timezone": "America/Los_Angeles"
  },
  {
    "Abbreviation": "bnd",
    "AreaID": 233,
    "Country": "US",
    "Description": "bend, OR",
    "Hostname": "bend",
    "Latitude": 44.0583,
    "Longitude": -121.314003,
    "Region": "OR",
    "ShortDescription": "bend",
    "Timezone": "America/Los_Angeles"
  },
  {
    "Abbreviation": "lon",
    "AreaID": 234,
    "Country": "CA",
    "Description": "london, ON",
    "Hostname": "londonon",
    "Latitude": 43.033298,
    "Longitude": -81.150002,
    "Region": "ON",
    "ShortDescription": "london, ON",
    "Timezone": "America/Toronto"
  },
  {
    "Abbreviation": "wsr",
    "AreaID": 235,
    "Country": "CA",
    "Description": "windsor, ON",
    "Hostname": "windsor",
    "Latitude": 42.287498,
    "Longitude": -83.005798,
    "Region": "ON",
    "ShortDescription": "windsor",
    "Timezone": "America/Toronto"
  },
  {
    "Abbreviation": "srq",
    "AreaID": 237,
    "Country": "US",
    "Description": "sarasota-bradenton",
    "Hostname": "sarasota",
    "Latitude": 27.3361,
    "Longitude": -82.5308,
    "Region": "FL",
    "ShortDescription": "sarasota",
    "Timezone": "America/New_York"
  },
  {
    "Abbreviation": "dab",
    "AreaID": 238,
    "Country": "US",
    "Description": "daytona beach",
    "Hostname": "daytona",
    "Latitude": 29.2106,
    "Longitude": -81.023102,
    "Region": "FL",
    "ShortDescription": "daytona beach",
    "Timezone": "America/New_York"
  },
  {
    "Abbreviation": "cap",
    "AreaID": 239,
    "Country": "US",
    "Description": "cape cod / islands",
    "Hostname": "capecod",
    "Latitude": 41.6889,
    "Longitude": -70.296898,
    "Region": "MA",
    "ShortDescription": "cape cod",
    "Timezone": "America/New_York"
  },
  {
    "Abbreviation": "wor",
    "AreaID": 240,
    "Country": "US",
    "Description": "worcester / central MA",
    "Hostname": "worcester",
    "Latitude": 42.262501,
    "Longitude": -71.802803,
    "Region": "MA",
    "ShortDescription": "worcester",
    "Timezone": "America/New_York"
  },
  {
    "Abbreviation": "grb",
    "AreaID": 241,
    "Country": "US",
    "Description": "green bay, WI",
    "Hostname": "greenbay",
    "Latitude": 44.519199,
    "Longitude": -88.019699,
    "Region": "WI",
    "ShortDescription": "green bay",
    "Timezone": "America/Chicago"
  },
  {
    "Abbreviation": "eau",
    "AreaID": 242,
    "Country": "US",
    "Description": "eau claire, WI",
    "Hostname": "eauclaire",
    "Latitude": 44.811401,
    "Longitude": -91.498299,
    "Region": "WI",
    "ShortDescription": "eau claire",
    "Timezone": "America/Chicago"
  },
  {
    "Abbreviation": "app",
    "AreaID": 243,
    "Country": "US",
    "Description": "appleton-oshkosh-FDL",
    "Hostname": "appleton",
    "Latitude": 44.261902,
    "Longitude": -88.415298,
    "Region": "WI",
    "ShortDescription": "appleton",
    "Timezone": "America/Chicago"
  },
  {
    "Abbreviation": "flg",
    "AreaID": 244,
    "Country": "US",
    "Description": "flagstaff / sedona",
    "Hostname": "flagstaff",
    "Latitude": 35.198101,
    "Longitude": -111.651001,
    "Region": "AZ",
    "ShortDescription": "flagstaff",
    "Timezone": "America/Phoenix"
  },
  {
    "Abbreviation": "gum",
    "AreaID": 245,
    "Country": "GU",
    "Description": "guam-micronesia",
    "Hostname": "micronesia",
    "Latitude": 13.45,
    "Longitude": 144.783005,
    "Region": "",
    "ShortDescription": "micronesia",
    "Timezone": "Pacific/Guam"
  },
  {
    "Abbreviation": "yak",
    "AreaID": 246,
    "Country": "US",
    "Description": "yakima, WA",
    "Hostname": "yakima",
    "Latitude": 46.6022,
    "Longitude": -120.504997,
    "Region": "WA",
    "ShortDescription": "yakima",
    "Timezone": "America/Los_Angeles"
  },
  {
    "Abbreviation": "uti",
    "AreaID": 247,
    "Country": "US",
    "Description": "utica-rome-oneida",
    "Hostname": "utica",
    "Latitude": 43.1008,
    "Longitude": -75.233101,
    "Region": "NY",
    "ShortDescription": "utica",
    "Timezone": "America/New_York"
  },
  {
    "Abbreviation": "bgm",
    "AreaID": 248,
    "Country": "US",
    "Description": "binghamton, NY",
    "Hostname": "binghamton",
    "Latitude": 42.098598,
    "Longitude": -75.918297,
    "Region": "NY",
    "ShortDescription": "binghamton",
    "Timezone": "America/New_York"
  },
  {
    "Abbreviation": "hud",
    "AreaID": 249,
    "Country": "US",
    "Description": "hudson valley, NY",
    "Hostname": "hudsonvalley",
    "Latitude": 41.576698,
    "Longitude": -73.803398,
    "Region": "NY",
    "ShortDescription": "hudson valley",
    "Timezone": "America/New_York"
  },
  {
    "Abbreviation": "isp",
    "AreaID": 250,
    "Country": "US",
    "Description": "long island, NY",
    "Hostname": "longisland",
    "Latitude": 40.822102,
    "Longitude": -73.149696,
    "Region": "NY",
    "ShortDescription": "long island",
    "Timezone": "America/New_York"
  },
  {
    "Abbreviation": "cak",
    "AreaID": 251,
    "Country": "US",
    "Description": "akron / canton",
    "Hostname": "akroncanton",
    "Latitude": 41.081402,
    "Longitude": -81.519203,
    "Region": "OH",
    "ShortDescription": "akron-canton",
    "Timezone": "America/New_York"
  },
  {
    "Abbreviation": "yng",
    "AreaID": 252,
    "Country": "US",
    "Description": "youngstown, OH",
    "Hostname": "youngstown",
    "Latitude": 41.099701,
    "Longitude": -80.649696,
    "Region": "OH",
    "ShortDescription": "youngstown",
    "Timezone": "America/New_York"
  },
  {
    "Abbreviation": "gsp",
    "AreaID": 253,
    "Country": "US",
    "Description": "greenville / upstate",
    "Hostname": "greenville",
    "Latitude": 34.852501,
    "Longitude": -82.394203,
    "Region": "SC",
    "ShortDescription": "greenville",
    "Timezone": "America/New_York"
  },
  {
    "Abbreviation": "myr",
    "AreaID": 254,
    "Country": "US",
    "Description": "myrtle beach, SC",
    "Hostname": "myrtlebeach",
    "Latitude": 33.6889,
    "Longitude": -78.886902,
    "Region": "SC",
    "ShortDescription": "myrtle beach",
    "Timezone": "America/New_York"
  },
  {
    "Abbreviation": "dlh",
    "AreaID": 255,
    "Country": "US",
    "Description": "duluth / superior",
    "Hostname": "duluth",
    "Latitude": 46.783298,
    "Longitude": -92.1064,
    "Region": "MN",
    "ShortDescription": "duluth",
    "Timezone": "America/Chicago"
  },
  {
    "Abbreviation": "aug",
    "AreaID": 256,
    "Country": "US",
    "Description": "augusta, GA",
    "Hostname": "augusta",
    "Latitude": 33.470798,
    "Longitude": -81.974998,
    "Region": "GA",
    "ShortDescription": "augusta",
    "Timezone": "America/New_York"
  },
  {
    "Abbreviation": "mcn",
    "AreaID": 257,
    "Country": "US",
    "Description": "macon / warner robins",
    "Hostname": "macon",
    "Latitude": 32.840599,
    "Longitude": -83.6325,
    "Region": "GA",
    "ShortDescription": "macon",
    "Timezone": "America/New_York"
  },
  {
    "Abbreviation": "ahn",
    "AreaID": 258,
    "Country": "US",
    "Description": "athens, GA",
    "Hostname": "athensga",
    "Latitude": 33.9608,
    "Longitude": -83.378098,
    "Region": "GA",
    "ShortDescription": "athens, GA",
    "Timezone": "America/New_York"
  },
  {
    "Abbreviation": "fnt",
    "AreaID": 259,
    "Country": "US",
    "Description": "flint, MI",
    "Hostname": "flint",
    "Latitude": 43.012501,
    "Longitude": -83.6875,
    "Region": "MI",
    "ShortDescription": "flint",
    "Timezone": "America/New_York"
  },
  {
    "Abbreviation": "mbs",
    "AreaID": 260,
    "Country": "US",
    "Description": "saginaw-midland-baycity",
    "Hostname": "saginaw",
    "Latitude": 43.419399,
    "Longitude": -83.950798,
    "Region": "MI",
    "ShortDescription": "saginaw",
    "Timezone": "America/New_York"
  },
  {
    "Abbreviation": "kzo",
    "AreaID": 261,
    "Country": "US",
    "Description": "kalamazoo, MI",
    "Hostname": "kalamazoo",
    "Latitude": 42.291698,
    "Longitude": -85.587196,
    "Region": "MI",
    "ShortDescription": "kalamazoo",
    "Timezone": "America/New_York"
  },
  {
    "Abbreviation": "yup",
    "AreaID": 262,
    "Country": "US",
    "Description": "upper peninsula, MI",
    "Hostname": "up",
    "Latitude": 46.550098,
    "Longitude": -87.408302,
    "Region": "MI",
    "ShortDescription": "yoopers",
    "Timezone": "America/New_York"
  },
  {
    "Abbreviation": "mca",
    "AreaID": 263,
    "Country": "US",
    "Description": "mcallen / edinburg",
    "Hostname": "mcallen",
    "Latitude": 26.2031,
    "Longitude": -98.229698,
    "Region": "TX",
    "ShortDescription": "mcallen",
    "Timezone": "America/Chicago"
  },
  {
    "Abbreviation": "bpt",
    "AreaID": 264,
    "Country": "US",
    "Description": "beaumont / port arthur",
    "Hostname": "beaumont",
    "Latitude": 30.0762,
    "Longitude": -94.112999,
    "Region": "TX",
    "ShortDescription": "beaumont",
    "Timezone": "America/Chicago"
  },
  {
    "Abbreviation": "crp",
    "AreaID": 265,
    "Country": "US",
    "Description": "corpus christi, TX",
    "Hostname": "corpuschristi",
    "Latitude": 27.800301,
    "Longitude": -97.396103,
    "Region": "TX",
    "ShortDescription": "corpus christi",
    "Timezone": "America/Chicago"
  },
  {
    "Abbreviation": "bro",
    "AreaID": 266,
    "Country": "US",
    "Description": "brownsville, TX",
    "Hostname": "brownsville",
    "Latitude": 25.9014,
    "Longitude": -97.4972,
    "Region": "TX",
    "ShortDescription": "brownsville",
    "Timezone": "America/Chicago"
  },
  {
    "Abbreviation": "lbb",
    "AreaID": 267,
    "Country": "US",
    "Description": "lubbock, TX",
    "Hostname": "lubbock",
    "Latitude": 33.577801,
    "Longitude": -101.855003,
    "Region": "TX",
    "ShortDescription": "lubbock",
    "Timezone": "America/Chicago"
  },
  {
    "Abbreviation": "odm",
    "AreaID": 268,
    "Country": "US",
    "Description": "odessa / midland",
    "Hostname": "odessa",
    "Latitude": 31.8456,
    "Longitude": -102.366997,
    "Region": "TX",
    "ShortDescription": "odessa",
    "Timezone": "America/Chicago"
  },
  {
    "Abbreviation": "ama",
    "AreaID": 269,
    "Country": "US",
    "Description": "amarillo, TX",
    "Hostname": "amarillo",
    "Latitude": 35.221901,
    "Longitude": -101.831001,
    "Region": "TX",
    "ShortDescription": "amarillo",
    "Timezone": "America/Chicago"
  },
  {
    "Abbreviation": "wco",
    "AreaID": 270,
    "Country": "US",
    "Description": "waco, TX",
    "Hostname": "waco",
    "Latitude": 31.5492,
    "Longitude": -97.1464,
    "Region": "TX",
    "ShortDescription": "waco",
    "Timezone": "America/Chicago"
  },
  {
    "Abbreviation": "lrd",
    "AreaID": 271,
    "Country": "US",
    "Description": "laredo, TX",
    "Hostname": "laredo",
    "Latitude": 27.5061,
    "Longitude": -99.507202,
    "Region": "TX",
    "ShortDescription": "laredo",
    "Timezone": "America/Chicago"
  },
  {
    "Abbreviation": "wsl",
    "AreaID": 272,
    "Country": "US",
    "Description": "winston-salem, NC",
    "Hostname": "winstonsalem",
    "Latitude": 36.099701,
    "Longitude": -80.2444,
    "Region": "NC",
    "ShortDescription": "winston-salem",
    "Timezone": "America/New_York"
  },
  {
    "Abbreviation": "fay",
    "AreaID": 273,
    "Country": "US",
    "Description": "fayetteville, NC",
    "Hostname": "fayetteville",
    "Latitude": 35.052502,
    "Longitude": -78.878601,
    "Region": "NC",
    "ShortDescription": "fayetteville, NC",
    "Timezone": "America/New_York"
  },
  {
    "Abbreviation": "wnc",
    "AreaID": 274,
    "Country": "US",
    "Description": "wilmington, NC",
    "Hostname": "wilmington",
    "Latitude": 34.225601,
    "Longitude": -77.945,
    "Region": "NC",
    "ShortDescription": "wilmington, NC",
    "Timezone": "America/New_York"
  },
  {
    "Abbreviation": "eri",
    "AreaID": 275,
    "Country": "US",
    "Description": "erie, PA",
    "Hostname": "erie",
    "Latitude": 42.1292,
    "Longitude": -80.085297,
    "Region": "PA",
    "ShortDescription": "erie, PA",
    "Timezone": "America/New_York"
  },
  {
    "Abbreviation": "avp",
    "AreaID": 276,
    "Country": "US",
    "Description": "scranton / wilkes-barre",
    "Hostname": "scranton",
    "Latitude": 41.408901,
    "Longitude": -75.662804,
    "Region": "PA",
    "ShortDescription": "scranton",
    "Timezone": "America/New_York"
  },
  {
    "Abbreviation": "psu",
    "AreaID": 277,
    "Country": "US",
    "Description": "state college, PA",
    "Hostname": "pennstate",
    "Latitude": 40.793301,
    "Longitude": -77.860298,
    "Region": "PA",
    "ShortDescription": "state college",
    "Timezone": "America/New_York"
  },
  {
    "Abbreviation": "rea",
    "AreaID": 278,
    "Country": "US",
    "Description": "reading, PA",
    "Hostname": "reading",
    "Latitude": 40.335602,
    "Longitude": -75.9272,
    "Region": "PA",
    "ShortDescription": "reading",
    "Timezone": "America/New_York"
  },
  {
    "Abbreviation": "lns",
    "AreaID": 279,
    "Country": "US",
    "Description": "lancaster, PA",
    "Hostname": "lancaster",
    "Latitude": 40.0378,
    "Longitude": -76.305801,
    "Region": "PA",
    "ShortDescription": "lancaster, PA",
    "Timezone": "America/New_York"
  },
  {
    "Abbreviation": "tpk",
    "AreaID": 280,
    "Country": "US",
    "Description": "topeka, KS",
    "Hostname": "topeka",
    "Latitude": 39.048302,
    "Longitude": -95.677803,
    "Region": "KS",
    "ShortDescription": "topeka",
    "Timezone": "America/Chicago"
  },
  {
    "Abbreviation": "nlo",
    "AreaID": 281,
    "Country": "US",
    "Description": "eastern CT",
    "Hostname": "newlondon",
    "Latitude": 41.344101,
    "Longitude": -72.1036,
    "Region": "CT",
    "ShortDescription": "eastern CT",
    "Timezone": "America/New_York"
  },
  {
    "Abbreviation": "lnk",
    "AreaID": 282,
    "Country": "US",
    "Description": "lincoln, NE",
    "Hostname": "lincoln",
    "Latitude": 40.799999,
    "Longitude": -96.666702,
    "Region": "NE",
    "ShortDescription": "lincoln",
    "Timezone": "America/Chicago"
  },
  {
    "Abbreviation": "lft",
    "AreaID": 283,
    "Country": "US",
    "Description": "lafayette, LA",
    "Hostname": "lafayette",
    "Latitude": 30.2139,
    "Longitude": -92.029404,
    "Region": "LA",
    "ShortDescription": "lafayette",
    "Timezone": "America/Chicago"
  },
  {
    "Abbreviation": "lkc",
    "AreaID": 284,
    "Country": "US",
    "Description": "lake charles, LA",
    "Hostname": "lakecharles",
    "Latitude": 30.214701,
    "Longitude": -93.208603,
    "Region": "LA",
    "ShortDescription": "lake charles",
    "Timezone": "America/Chicago"
  },
  {
    "Abbreviation": "mer",
    "AreaID": 285,
    "Country": "US",
    "Description": "merced, CA",
    "Hostname": "merced",
    "Latitude": 37.3022,
    "Longitude": -120.482002,
    "Region": "CA",
    "ShortDescription": "merced",
    "Timezone": "America/Los_Angeles"
  },
  {
    "Abbreviation": "snj",
    "AreaID": 286,
    "Country": "US",
    "Description": "south jersey",
    "Hostname": "southjersey",
    "Latitude": 39.480301,
    "Longitude": -75.013901,
    "Region": "NJ",
    "ShortDescription": "south jersey",
    "Timezone": "America/New_York"
  },
  {
    "Abbreviation": "ftc",
    "AreaID": 287,
    "Country": "US",
    "Description": "fort collins / north CO",
    "Hostname": "fortcollins",
    "Latitude": 40.5853,
    "Longitude": -105.084,
    "Region": "CO",
    "ShortDescription": "fort collins",
    "Timezone": "America/Denver"
  },
  {
    "Abbreviation": "rck",
    "AreaID": 288,
    "Country": "US",
    "Description": "high rockies",
    "Hostname": "rockies",
    "Latitude": 39.1917,
    "Longitude": -106.824699,
    "Region": "CO",
    "ShortDescription": "high rockies",
    "Timezone": "America/Denver"
  },
  {
    "Abbreviation": "roa",
    "AreaID": 289,
    "Country": "US",
    "Description": "roanoke, VA",
    "Hostname": "roanoke",
    "Latitude": 37.274101,
    "Longitude": -79.942001,
    "Region": "VA",
    "ShortDescription": "roanoke",
    "Timezone": "America/New_York"
  },
  {
    "Abbreviation": "uva",
    "AreaID": 290,
    "Country": "US",
    "Description": "charlottesville, VA",
    "Hostname": "charlottesville",
    "Latitude": 38.0345,
    "Longitude": -78.486504,
    "Region": "VA",
    "ShortDescription": "charlottesville",
    "Timezone": "America/New_York"
  },
  {
    "Abbreviation": "vpi",
    "AreaID": 291,
    "Country": "US",
    "Description": "new river valley",
    "Hostname": "blacksburg",
    "Latitude": 37.229401,
    "Longitude": -80.4142,
    "Region": "VA",
    "ShortDescription": "blacksburg",
    "Timezone": "America/New_York"
  },
  {
    "Abbreviation": "pvu",
    "AreaID": 292,
    "Country": "US",
    "Description": "provo / orem",
    "Hostname": "provo",
    "Latitude": 40.233898,
    "Longitude": -111.657997,
    "Region": "UT",
    "ShortDescription": "provo",
    "Timezone": "America/Denver"
  },
  {
    "Abbreviation": "fyv",
    "AreaID": 293,
    "Country": "US",
    "Description": "fayetteville, AR",
    "Hostname": "fayar",
    "Latitude": 36.0625,
    "Longitude": -94.157204,
    "Region": "AR",
    "ShortDescription": "fayetteville, AR",
    "Timezone": "America/Chicago"
  },
  {
    "Abbreviation": "pak",
    "AreaID": 294,
    "Country": "PK",
    "Description": "pakistan",
    "Hostname": "pakistan",
    "Latitude": 32.016201,
    "Longitude": 71.692596,
    "Region": "",
    "ShortDescription": "pakistan",
    "Timezone": "Asia/Karachi"
  },
  {
    "Abbreviation": "bgl",
    "AreaID": 295,
    "Country": "BD",
    "Description": "bangladesh",
    "Hostname": "bangladesh",
    "Latitude": 23.851101,
    "Longitude": 89.925003,
    "Region": "",
    "ShortDescription": "bangladesh",
    "Timezone": "Asia/Dhaka"
  },
  {
    "Abbreviation": "bey",
    "AreaID": 296,
    "Country": "LB",
    "Description": "beirut, lebanon",
    "Hostname": "beirut",
    "Latitude": 33.883301,
    "Longitude": 35.5,
    "Region": "",
    "ShortDescription": "beirut",
    "Timezone": "Asia/Beirut"
  },
  {
    "Abbreviation": "mly",
    "AreaID": 297,
    "Country": "MY",
    "Description": "malaysia",
    "Hostname": "malaysia",
    "Latitude": 3.57099,
    "Longitude": 101.991997,
    "Region": "",
    "ShortDescription": "malaysia",
    "Timezone": "Asia/Kuala_Lumpur"
  },
  {
    "Abbreviation": "pan",
    "AreaID": 298,
    "Country": "PA",
    "Description": "panama",
    "Hostname": "panama",
    "Latitude": 8.75154,
    "Longitude": -79.877197,
    "Region": "",
    "ShortDescription": "panama",
    "Timezone": "America/Panama"
  },
  {
    "Abbreviation": "crb",
    "AreaID": 299,
    "Country": "",
    "Description": "caribbean islands",
    "Hostname": "caribbean",
    "Latitude": 19.0933,
    "Longitude": -74.619102,
    "Region": "",
    "ShortDescription": "caribbean",
    "Timezone": "America/Jamaica"
  },